"name","typeString","addressLineOne","addressLineTwo","city","state","zipFive","zipFour","county","isPoBoxLocation","phone","drivingDirectionsLink","grantNumber","delegateNumber","programName","programAddressLineOne","programAddressLineTwo","programCity","programState","programZipFive","programZipFour","programCounty","programPhone","programRegistrationPhone","latitude","longitude"
"JL Hensey Site","Head Start","304 E Almond Dr","","Washington","IL","61571","3104","Tazewell County",false,"(309) 699-6843","https://maps.google.com?saddr=40.633,-89.399&daddr=40.6875,-89.4874","05CH011120","000","Tazewell-Woodford Head Start","233 Leadley Avenue","","East Peoria","IL","61611","2755","Tazewell County","(309) 699-6843","(309)699-6843",40.6875,-89.4874
"Robein","Head Start","200 Campus Ave","","East Peoria","IL","61611","1601","Tazewell County",false,"(309) 699-6843","https://maps.google.com?saddr=40.633,-89.399&daddr=40.6878,-89.5084","05CH011120","000","Tazewell-Woodford Head Start","233 Leadley Avenue","","East Peoria","IL","61611","2755","Tazewell County","(309) 699-6843","(309)699-6843",40.6878,-89.5084
"Family Center Head Start","Head Start","233 Leadley Ave","","East Peoria","IL","61611","2755","Tazewell County",false,"(309) 699-6843","https://maps.google.com?saddr=40.633,-89.399&daddr=40.6698,-89.5609","05CH011120","000","Tazewell-Woodford Head Start","233 Leadley Avenue","","East Peoria","IL","61611","2755","Tazewell County","(309) 699-6843","(309)699-6843",40.6698,-89.5609
"Early Head Start Home-Based","Early Head Start","616 Abington St","Ste G","Peoria","IL","61603","3521","Peoria County",false,"(309) 495-5254","https://maps.google.com?saddr=40.633,-89.399&daddr=40.7095,-89.5709","05CH010613","200","Peoria Citizens Committee for Economic Opportunity, Inc","616 Abington St","Ste G","Peoria","IL","61603","3521","Peoria County","(309) 495-5254","(309)495-5254 - 290",40.7095,-89.5709
"Creve Coeur Head Start","Head Start","300 N Highland St","","Creve Coeur","IL","61610","3135","Tazewell County",false,"(309) 694-8005","https://maps.google.com?saddr=40.633,-89.399&daddr=40.6492,-89.5975","05CH011120","000","Tazewell-Woodford Head Start","233 Leadley Avenue","","East Peoria","IL","61611","2755","Tazewell County","(309) 694-8005","(309)699-6843",40.6492,-89.5975
"Woodruff Career & Technical Center Head Start","Head Start","1800 NE Perry Ave","","Peoria","IL","61603","3461","Peoria County",false,"(309) 672-6655","https://maps.google.com?saddr=40.633,-89.399&daddr=40.7085,-89.5727","05CH010613","000","Peoria Citizens Committee for Economic Opportunity, Inc","923 W Millman St"," ","Peoria","IL","61605","3771","Peoria County","(309) 672-6655","(309)671-3960",40.7085,-89.5727
"Webster Head Start","Head Start","923 W Millman St","","Peoria","IL","61605","3771","Peoria County",false,"(309) 671-3960","https://maps.google.com?saddr=40.633,-89.399&daddr=40.6838,-89.6093","05CH010613","000","Peoria Citizens Committee for Economic Opportunity, Inc","923 W Millman St"," ","Peoria","IL","61605","3771","Peoria County","(309) 671-3960","(309)671-3960",40.6838,-89.6093
"Eureka Head Start","Head Start","1195 County Road 1600 E","","Eureka","IL","61530","9575","Woodford County",false,"(309) 699-6843","https://maps.google.com?saddr=40.633,-89.399&daddr=40.7631,-89.235","05CH011120","000","Tazewell-Woodford Head Start","233 Leadley Avenue","","East Peoria","IL","61611","2755","Tazewell County","(309) 699-6843","(309)699-6843",40.7631,-89.235
"Harrison Community Learning Center","Head Start","2727 W Krause Ave","","Peoria","IL","61605","2906","Peoria County",false,"(309) 672-6522","https://maps.google.com?saddr=40.633,-89.399&daddr=40.6669,-89.6363","05CH010613","000","Peoria Citizens Committee for Economic Opportunity, Inc","923 W Millman St"," ","Peoria","IL","61605","3771","Peoria County","(309) 672-6522","(309)671-3960",40.6669,-89.6363
"Manual Academy Head Start","Head Start","811 S Griswold St","","Peoria","IL","61605","1458","Peoria County",false,"(309) 672-6600","https://maps.google.com?saddr=40.633,-89.399&daddr=40.6796,-89.6347","05CH010613","000","Peoria Citizens Committee for Economic Opportunity, Inc","923 W Millman St"," ","Peoria","IL","61605","3771","Peoria County","(309) 672-6600","(309)671-3960",40.6796,-89.6347
"Trewyn Head Start","Head Start","2219 S Idaho St","","Peoria","IL","61605","3023","Peoria County",false,"(309) 671-3958","https://maps.google.com?saddr=40.633,-89.399&daddr=40.6631,-89.64","05CH010613","000","Peoria Citizens Committee for Economic Opportunity, Inc","923 W Millman St"," ","Peoria","IL","61605","3771","Peoria County","(309) 671-3958","(309)671-3960",40.6631,-89.64
"BDGP Early Learning Center","Head Start and Early Head Start","4314 N Sheridan Rd","","Peoria","IL","61614","5918","Peoria County",false,"(309) 671-3960","https://maps.google.com?saddr=40.633,-89.399&daddr=40.7403,-89.6024","05CH010613","000","Peoria Citizens Committee for Economic Opportunity, Inc","923 W Millman St"," ","Peoria","IL","61605","3771","Peoria County","(309) 671-3960","(309)671-3960",40.7403,-89.6024
"Pierson Hills Early Head Start","Early Head Start","1826 N Lehman Rd","","Peoria","IL","61604","3862","Peoria County",false,"(309) 839-2106","https://maps.google.com?saddr=40.633,-89.399&daddr=40.7096,-89.6381","05CH010613","200","Peoria Citizens Committee for Economic Opportunity, Inc","616 Abington St","Ste G","Peoria","IL","61603","3521","Peoria County","(309) 839-2106","(309)495-5254 - 290",40.7096,-89.6381
"Pekin Head Start","Head Start","1000 Koch St","","Pekin","IL","61554","5885","Tazewell County",false,"(309) 347-1971","https://maps.google.com?saddr=40.633,-89.399&daddr=40.5524,-89.6383","05CH011120","000","Tazewell-Woodford Head Start","233 Leadley Avenue","","East Peoria","IL","61611","2755","Tazewell County","(309) 347-1971","(309)699-6843",40.5524,-89.6383
"Stillwell West","Head Start and Early Head Start","1407 W Washington St","","Bloomington","IL","61701","4713","McLean County",false,"","https://maps.google.com?saddr=40.633,-89.399&daddr=40.4794,-89.0145","05CH011672","200","Heartland Head Start","206 Stillwell St","","Bloomington","IL","61701","3741","McLean County","","(309)662-4880",40.4794,-89.0145
"Stillwell East","Head Start and Early Head Start","206 Stillwell St","","Bloomington","IL","61701","3741","McLean County",false,"(309) 662-4880","https://maps.google.com?saddr=40.633,-89.399&daddr=40.4802,-89.0136","05CH011672","200","Heartland Head Start","206 Stillwell St","","Bloomington","IL","61701","3741","McLean County","(309) 662-4880","(309)662-4880",40.4802,-89.0136
"Tazewell/Woodford EHS","Early Head Start","403 S State St","","Bloomington","IL","61701","5556","McLean County",false,"(309) 827-0374","https://maps.google.com?saddr=40.633,-89.399&daddr=40.4758,-88.9754","05CH011114","200","Children's Home & Aid Society of Illinois","125 S Wacker Dr Fl 14","","Chicago","IL","60606","4429","Cook County","(309) 827-0374","(773)476-6998",40.4758,-88.9754
"Scott Early Learning & Child Care Center","Head Start and Early Head Start","403 S State St","1119 East Taylor Street","Bloomington","IL","61701","5556","McLean County",false,"(309) 834-5210","https://maps.google.com?saddr=40.633,-89.399&daddr=40.4758,-88.9754","05CH011114","000","Children's Home & Aid Society of Illinois","125 S Wacker Dr","Fl 14","Chicago","IL","60606","4429","Cook County","(309) 834-5210","(773)476-6998",40.4758,-88.9754
"Mason 2","Head Start","450 E Southmoor St","","Manito","IL","61546","9106","Mason County",false,"(309) 613-2821","https://maps.google.com?saddr=40.633,-89.399&daddr=40.4154,-89.775","05CH011455","000","Community Action Partnership of Central Illinois, Inc.","1800 5th Street","","Lincoln","IL","62656","9107","Logan County","(309) 613-2821","(217)732-2159 - 236",40.4154,-89.775
"YWCA","Head Start","1201 N Hershey Rd","","Bloomington","IL","61704","3619","McLean County",false,"(309) 662-0461","https://maps.google.com?saddr=40.633,-89.399&daddr=40.4906,-88.9425","05CH011672","000","Heartland Head Start, Inc.","206 Stillwell St","","Bloomington","IL","61701","3741","McLean County","(309) 662-0461","(309)662-4880",40.4906,-88.9425
"LACON","Head Start and Early Head Start","319 5th St","","Lacon","IL","61540","1275","Marshall County",false,"(309) 246-6398","https://maps.google.com?saddr=40.633,-89.399&daddr=41.0247,-89.4103","05CH010856","000","Tri-County Opportunities Council, Inc.","405 Emmons Ave","","Rock Falls","IL","61071","1407","Whiteside County","(309) 246-6398","(815)625-7830 - 34",41.0247,-89.4103
"Princeville MHS","Migrant and Seasonal Head Start","909 N Town Ave","","Princeville","IL","61559","7536","Peoria County",false,"(309) 385-2213","https://maps.google.com?saddr=40.633,-89.399&daddr=40.9391,-89.7554","90CM009834","005","Princeville CUSD 326","909 Town Ave.","","Princeville","IL","61559","-1","Peoria County","(309) 385-2213","(309)385-2213 - 1949",40.9391,-89.7554
"Logan 1 & 3","Head Start","2018 N Kickapoo St","","Lincoln","IL","62656","1302","Logan County",false,"(217) 732-3448","https://maps.google.com?saddr=40.633,-89.399&daddr=40.1624,-89.3444","05CH011455","000","Community Action Partnership of Central Illinois, Inc.","1800 5th Street","","Lincoln","IL","62656","9107","Logan County","(217) 732-3448","(217)732-2159 - 236",40.1624,-89.3444
"Logan 2","Head Start","200 Centennial Ct","","Lincoln","IL","62656","2900","Logan County",false,"(217) 735-2398","https://maps.google.com?saddr=40.633,-89.399&daddr=40.1472,-89.3544","05CH011455","000","Community Action Partnership of Central Illinois, Inc.","1800 5th Street","","Lincoln","IL","62656","9107","Logan County","(217) 735-2398","(217)732-2159 - 236",40.1472,-89.3544
"Logan County EHS","Early Head Start","721 Wyatt Ave","Ste 1","Lincoln","IL","62656","3083","Logan County",false,"(217) 737-5012","https://maps.google.com?saddr=40.633,-89.399&daddr=40.1391,-89.3598","05CH011455","200","Community Action Partnership of Central Illinois, Inc.","1800 Fifth Street","","Lincoln","IL","62656","-1","Logan County","(217) 737-5012","(217)732-2159 - 257",40.1391,-89.3598
"Fulton Head Start","Head Start and Early Head Start","1055 W Locust St","","Canton","IL","61520","8435","Fulton County",false,"(309) 649-1549","https://maps.google.com?saddr=40.633,-89.399&daddr=40.5601,-90.0591","05CH011455","200","Community Action Partnership of Central Illinois, Inc.","1800 Fifth Street","","Lincoln","IL","62656","-1","Logan County","(309) 649-1549","(217)732-2159 - 257",40.5601,-90.0591
"WYOMING EXTENDED DAY","Head Start","110 N 7th St","","Wyoming","IL","61491","1308","Stark County",false,"(309) 695-2046","https://maps.google.com?saddr=40.633,-89.399&daddr=41.062,-89.7731","05CH010856","000","Tri-County Opportunities Council, Inc.","405 Emmons Ave","","Rock Falls","IL","61071","1407","Whiteside County","(309) 695-2046","(815)625-7830 - 34",41.062,-89.7731
"DeWitt","Head Start and Early Head Start","45 Cedar Sq","","Clinton","IL","61727","2201","De Witt County",false,"(217) 935-4429","https://maps.google.com?saddr=40.633,-89.399&daddr=40.1461,-88.9619","05CH011455","200","Community Action Partnership of Central Illinois, Inc.","1800 Fifth Street","","Lincoln","IL","62656","-1","Logan County","(217) 935-4429","(217)732-2159 - 257",40.1461,-88.9619
"Mason 1","Head Start and Early Head Start","301 S Dale Dr","Ste B","Havana","IL","62644","7003","Mason County",false,"(309) 543-6988","https://maps.google.com?saddr=40.633,-89.399&daddr=40.2986,-90.0439","05CH011455","200","Community Action Partnership of Central Illinois, Inc.","1800 Fifth Street","","Lincoln","IL","62656","-1","Logan County","(309) 543-6988","(217)732-2159 - 257",40.2986,-90.0439
"Lewistown","Head Start","15501 E Avenue L","","Lewistown","IL","61542","9454","Fulton County",false,"(309) 267-2422","https://maps.google.com?saddr=40.633,-89.399&daddr=40.3852,-90.1516","05CH011455","000","Community Action Partnership of Central Illinois, Inc.","1800 5th Street","","Lincoln","IL","62656","9107","Logan County","(309) 267-2422","(217)732-2159 - 236",40.3852,-90.1516
"STREATOR","Head Start and Early Head Start","701 S Sterling St","","Streator","IL","61364","3475","LaSalle County",false,"(815) 673-3120","https://maps.google.com?saddr=40.633,-89.399&daddr=41.1122,-88.83","05CH010856","000","Tri-County Opportunities Council, Inc.","405 Emmons Ave","","Rock Falls","IL","61071","1407","Whiteside County","(815) 673-3120","(815)625-7830 - 34",41.1122,-88.83
"Pontiac","Head Start and Early Head Start","1303 E Indiana Ave","Boys 'N Girls Club","Pontiac","IL","61764","1207","Livingston County",false,"(309) 662-4880","https://maps.google.com?saddr=40.633,-89.399&daddr=40.8885,-88.6136","05CH011672","200","Heartland Head Start","206 Stillwell St","","Bloomington","IL","61701","3741","McLean County","(309) 662-4880","(309)662-4880",40.8885,-88.6136
"SPRING VALLEY EXTENDED DAY","Head Start and Early Head Start","227 E Erie St","","Spring Valley","IL","61362","2137","Bureau County",false,"(815) 663-1420","https://maps.google.com?saddr=40.633,-89.399&daddr=41.3257,-89.1977","05CH010856","000","Tri-County Opportunities Council, Inc.","405 Emmons Ave","","Rock Falls","IL","61071","1407","Whiteside County","(815) 663-1420","(815)625-7830 - 34",41.3257,-89.1977
"Menard","Head Start and Early Head Start","511 S 6th St","","Petersburg","IL","62675","1605","Menard County",false,"(217) 632-0188","https://maps.google.com?saddr=40.633,-89.399&daddr=40.0071,-89.8485","05CH011455","200","Community Action Partnership of Central Illinois, Inc.","1800 Fifth Street","","Lincoln","IL","62656","-1","Logan County","(217) 632-0188","(217)732-2159 - 257",40.0071,-89.8485
"Knoxville Head Start","Head Start","51 E Ann St","","Knoxville","IL","61448","2108","Knox County",false,"(309) 734-3151","https://maps.google.com?saddr=40.633,-89.399&daddr=40.9108,-90.2846","05CH011223","000","West Central Community Services, Inc.","321 E Euclid Ave","","Monmouth","IL","61462","1312","Warren County","(309) 734-3151","(309)734-3151 - 235",40.9108,-90.2846
"Kewanee 1201","Head Start","109 S Elm St","","Kewanee","IL","61443","2340","Henry County",false,"(309) 852-4346","https://maps.google.com?saddr=40.633,-89.399&daddr=41.2428,-89.9223","05CH011954","000","Project NOW, Inc., Community Action Agency","418 19th St","","Rock Island","IL","61201","8123","Rock Island County","(309) 852-4346","(309)792-4555",41.2428,-89.9223
"LASALLE","Head Start and Early Head Start","3691 Cougar Dr","","Peru","IL","61354","9302","LaSalle County",false,"(815) 322-7537","https://maps.google.com?saddr=40.633,-89.399&daddr=41.3606,-89.161","05CH010856","000","Tri-County Opportunities Council, Inc.","405 Emmons Ave","","Rock Falls","IL","61071","1407","Whiteside County","(815) 322-7537","(815)625-7830 - 34",41.3606,-89.161
"Early Head Start Home Based Program Knox, Warren & Henderson Counties 24 slots","Early Head Start","527 Iowa Ct","","Galesburg","IL","61401","5423","Knox County",false,"(309) 734-3151","https://maps.google.com?saddr=40.633,-89.399&daddr=40.9408,-90.3401","05CH011223","200","West Central Community Services, Inc.","321 E Euclid Ave","","Monmouth","IL","61462","1312","Warren County","(309) 734-3151","(309)734-3151 - 235",40.9408,-90.3401
"Knox County  Head Start II","Head Start","515 Iowa Ct","","Galesburg","IL","61401","5423","Knox County",false,"(309) 734-3151","https://maps.google.com?saddr=40.633,-89.399&daddr=40.9409,-90.3403","05CH011223","000","West Central Community Services, Inc.","321 E Euclid Ave","","Monmouth","IL","61462","1312","Warren County","(309) 734-3151","(309)734-3151 - 235",40.9409,-90.3403
"Abingdon Head Start","Head Start","103 S Western Ave","","Abingdon","IL","61410","1622","Knox County",false,"(309) 734-3151","https://maps.google.com?saddr=40.633,-89.399&daddr=40.8013,-90.4021","05CH011223","000","West Central Community Services, Inc.","321 E Euclid Ave","","Monmouth","IL","61462","1312","Warren County","(309) 734-3151","(309)734-3151 - 235",40.8013,-90.4021
"Gibson City Head Start","Head Start","401 N Church St","","Gibson City","IL","60936","1225","Ford County",false,"(217) 504-9960","https://maps.google.com?saddr=40.633,-89.399&daddr=40.4693,-88.3741","90CH011821","000","CDI HS/ Vermilion, Iroquois and Ford County, IL","10065 E Harvard Ave","Ste 700","Denver","CO","80231","5915","Denver County","(217) 504-9960","(217) 504-9960",40.4693,-88.3741
"Knox County Head Start I","Head Start","227 E Tompkins St","","Galesburg","IL","61401","4710","Knox County",false,"(309) 734-3151","https://maps.google.com?saddr=40.633,-89.399&daddr=40.9451,-90.3676","05CH011223","000","West Central Community Services, Inc.","321 E Euclid Ave","","Monmouth","IL","61462","1312","Warren County","(309) 734-3151","(309)734-3151 - 235",40.9451,-90.3676
"Piatt","Head Start","315 N Main St","","Cisco","IL","61830","6549","Piatt County",false,"(217) 669-2303","https://maps.google.com?saddr=40.633,-89.399&daddr=40.0133,-88.7261","05CH011455","000","Community Action Partnership of Central Illinois, Inc.","1800 5th Street","","Lincoln","IL","62656","9107","Logan County","(217) 669-2303","(217)732-2159 - 236",40.0133,-88.7261
"OTTAWA EXTENDED DAY","Head Start","103 W McKinley Rd","","Ottawa","IL","61350","4712","LaSalle County",false,"(815) 434-1355","https://maps.google.com?saddr=40.633,-89.399&daddr=41.3244,-88.8398","05CH010856","000","Tri-County Opportunities Council, Inc.","405 Emmons Ave","","Rock Falls","IL","61071","1407","Whiteside County","(815) 434-1355","(815)625-7830 - 34",41.3244,-88.8398
"OTTAWA","Head Start and Early Head Start","627 Gentleman Rd","","Ottawa","IL","61350","4136","LaSalle County",false,"(815) 433-3025","https://maps.google.com?saddr=40.633,-89.399&daddr=41.3315,-88.8314","05CH010856","000","Tri-County Opportunities Council, Inc.","405 Emmons Ave","","Rock Falls","IL","61071","1407","Whiteside County","(815) 433-3025","(815)625-7830 - 34",41.3315,-88.8314
"OTTAWA FULL DAY/FULL YEAR","Head Start","1903 Pratt Ln","","Ottawa","IL","61350","1680","LaSalle County",false,"(815) 433-9750","https://maps.google.com?saddr=40.633,-89.399&daddr=41.3624,-88.8308","05CH010856","000","Tri-County Opportunities Council, Inc.","405 Emmons Ave","","Rock Falls","IL","61071","1407","Whiteside County","(815) 433-9750","(815)625-7830 - 34",41.3624,-88.8308
"Empowerment Opportunity Center","Head Start","360 E Marietta St","","Decatur","IL","62521","1142","Macon County",false,"(217) 423-2268","https://maps.google.com?saddr=40.633,-89.399&daddr=39.8515,-88.9528","05CH011044","000","Decatur-Macon County Opportunities Corporation","360 E Marietta St"," ","Decatur","IL","62521","1142","Macon County","(217) 423-2268","(217)423-2268",39.8515,-88.9528
"Baby TALK, Inc","Early Head Start","355 E Marietta St","","Decatur","IL","62521","1140","Macon County",false,"(217) 475-2234","https://maps.google.com?saddr=40.633,-89.399&daddr=39.851,-88.9524","05CH011003","200","Baby TALK, Inc.","355 E Marietta St"," ","Decatur","IL","62521","1140","Macon County","(217) 475-2234","(217)422-9930",39.851,-88.9524
"Cook Site","Head Start and Early Head Start","1108 E Cook St","","Springfield","IL","62703","1735","Sangamon County",false,"(217) 528-0893","https://maps.google.com?saddr=40.633,-89.399&daddr=39.7948,-89.6408","05CH011036","000","Springfield Urban League, Inc.","100 N 11th St","1108 East Cook Street","Springfield","IL","62703","1002","Sangamon County","(217) 528-0893","(217)789-0893 - 1210",39.7948,-89.6408
"Apple Orchard","Head Start","770 Apple Orchard Rd","","Springfield","IL","62703","5924","Sangamon County",false,"(217) 528-8028","https://maps.google.com?saddr=40.633,-89.399&daddr=39.7609,-89.6451","05CH011036","000","Springfield Urban League, Inc.","100 N 11th St","1108 East Cook Street","Springfield","IL","62703","1002","Sangamon County","(217) 528-8028","(217)789-0893 - 1210",39.7609,-89.6451
"SENECA","Head Start","307 E Scott St","","Seneca","IL","61360","2008","LaSalle County",false,"(815) 357-6461","https://maps.google.com?saddr=40.633,-89.399&daddr=41.3152,-88.6032","05CH010856","000","Tri-County Opportunities Council, Inc.","405 Emmons Ave","","Rock Falls","IL","61071","1407","Whiteside County","(815) 357-6461","(815)625-7830 - 34",41.3152,-88.6032
"MENDOTA","Head Start","101 4th St","","Mendota","IL","61342","2327","LaSalle County",false,"(815) 538-3026","https://maps.google.com?saddr=40.633,-89.399&daddr=41.545,-89.1089","05CH010856","000","Tri-County Opportunities Council, Inc.","405 Emmons Ave","","Rock Falls","IL","61071","1407","Whiteside County","(815) 538-3026","(815)625-7830 - 34",41.545,-89.1089
"Macomb Center","Head Start and Early Head Start","320 W University Dr","","Macomb","IL","61455","1145","McDonough County",false,"(309) 298-3143","https://maps.google.com?saddr=40.633,-89.399&daddr=40.473,-90.6726","05CH010617","000","PACT FOR WEST CENTRAL ILLINOIS","2090 Highway 24"," ","Camp Point","IL","62320","2218","Adams County","(309) 298-3143","(217)773-3903",40.473,-90.6726
"Warren County Head Start","Head Start","321 E Euclid Ave","","Monmouth","IL","61462","1312","Warren County",false,"(309) 734-3151","https://maps.google.com?saddr=40.633,-89.399&daddr=40.9172,-90.6451","05CH011223","000","West Central Community Services, Inc.","321 E Euclid Ave","","Monmouth","IL","61462","1312","Warren County","(309) 734-3151","(309)734-3151 - 235",40.9172,-90.6451
"RPC Early Childhood Education Center at West Champaign","Early Head Start","103 S Country Fair Dr","","Champaign","IL","61821","3061","Champaign County",false,"(217) 239-5951","https://maps.google.com?saddr=40.633,-89.399&daddr=40.1161,-88.2826","05HP000138","200","Champaign County","1776 East Washington Street","","Urbana","IL","61802","4578","Champaign County","(217) 239-5951","(217)819-4040",40.1161,-88.2826
"RPC Early Childhood Education Center at West Champaign","Head Start","103 S Country Fair Dr","","Champaign","IL","61821","3061","Champaign County",false,"(217) 239-5951","https://maps.google.com?saddr=40.633,-89.399&daddr=40.1161,-88.2825","05CH011410","000","Champaign County Head Start","1776 East Washington Street","","Urbana","IL","61802","4578","Champaign County","(217) 239-5951","(217)819-4040",40.1161,-88.2825
"Rantoul Head Start/Early Head Start","Head Start and Early Head Start","104 E Nightingale Ct","","Rantoul","IL","61866","3673","Champaign County",false,"(217) 893-0886","https://maps.google.com?saddr=40.633,-89.399&daddr=40.2878,-88.1575","05CH011410","200","Champaign County Early Head Start","1776 East Washington Street","","Urbana","IL","61802","4578","Champaign County","(217) 893-0886","(217)819-4040",40.2878,-88.1575
"Beardstown Center","Head Start and Early Head Start","909 W 12th St","","Beardstown","IL","62618","1601","Cass County",false,"(217) 323-9422","https://maps.google.com?saddr=40.633,-89.399&daddr=40.0072,-90.438","05CH010617","000","PACT FOR WEST CENTRAL ILLINOIS","2090 Highway 24"," ","Camp Point","IL","62320","2218","Adams County","(217) 323-9422","(217)773-3903",40.0072,-90.438
"Rantoul & East St Louis Partnership","Migrant and Seasonal Head Start","1126 Country Club Ln","","Rantoul","IL","61866","3564","Champaign County",false,"","https://maps.google.com?saddr=40.633,-89.399&daddr=40.3039,-88.1392","90CM009834","001","Migrant Education, Inc.","8125 Old Highway 51 N","","Cobden","IL","62920","3044","Union County","","(618)893-4541",40.3039,-88.1392
"Paxton Head Start/Early Head Start","Head Start and Early Head Start","1195 E Pells St","","Paxton","IL","60957","1305","Ford County",false,"(217) 504-7085","https://maps.google.com?saddr=40.633,-89.399&daddr=40.4591,-88.0832","90CH011821","000","CDI HS/ Vermilion, Iroquois and Ford County, IL","10065 E Harvard Ave","Ste 700","Denver","CO","80231","5915","Denver County","(217) 504-7085","(217) 504-7085",40.4591,-88.0832
"Champaign Head Start/Early Head Start","Head Start and Early Head Start","809 N Neil St","","Champaign","IL","61820","3058","Champaign County",false,"(217) 384-1200","https://maps.google.com?saddr=40.633,-89.399&daddr=40.1238,-88.2444","05CH011410","200","Champaign County Early Head Start","1776 East Washington Street","","Urbana","IL","61802","4578","Champaign County","(217) 384-1200","(217)819-4040",40.1238,-88.2444
"Schuyler County Home Based Site-Free Methodist Church","Early Head Start","217 S Liberty St","","Rushville","IL","62681","1439","Schuyler County",false,"(217) 322-3380","https://maps.google.com?saddr=40.633,-89.399&daddr=40.1186,-90.5621","05CH010617","200","PACT FOR WEST CENTRAL ILLINOIS","2090 Highway 24"," ","Camp Point","IL","62320","2218","Adams County","(217) 322-3380","(217)773-3903",40.1186,-90.5621
"Step By Step - Morris","Head Start","123 Brentwood Dr","","Morris","IL","60450","8819","Grundy County",false,"(815) 941-1122","https://maps.google.com?saddr=40.633,-89.399&daddr=41.3769,-88.4243","05CH011765","000","YWCA Metropolitan Chicago","2055 W Army Trail Rd","Ste 140","Addison","IL","60101","1478","DuPage County","(815) 941-1122","(815) 941-1122",41.3769,-88.4243
"Savoy Head Start","Head Start","310 W Church St","","Savoy","IL","61874","9786","Champaign County",false,"(217) 384-1252","https://maps.google.com?saddr=40.633,-89.399&daddr=40.0546,-88.2542","05CH011410","000","Champaign County Head Start","1776 East Washington Street","","Urbana","IL","61802","4578","Champaign County","(217) 384-1252","(217)819-4040",40.0546,-88.2542
"Brookens Administrative Center","Head Start and Early Head Start","1776 E Washington St","Pod 100","Urbana","IL","61802","4578","Champaign County",false,"(217) 328-3313","https://maps.google.com?saddr=40.633,-89.399&daddr=40.1066,-88.1866","05CH011410","200","Champaign County Early Head Start","1776 East Washington Street","","Urbana","IL","61802","4578","Champaign County","(217) 328-3313","(217)819-4040",40.1066,-88.1866
"Urbana Head Start/Early Head Start","Head Start and Early Head Start","1603 E Mumford Dr","","Urbana","IL","61802","8603","Champaign County",false,"(217) 278-4461","https://maps.google.com?saddr=40.633,-89.399&daddr=40.0899,-88.1885","05CH011410","200","Champaign County Early Head Start","1776 East Washington Street","","Urbana","IL","61802","4578","Champaign County","(217) 278-4461","(217)819-4040",40.0899,-88.1885
"Gilman Head Start","Head Start","210 N Central St","","Gilman","IL","60938","1219","Iroquois County",false,"(217) 474-8175","https://maps.google.com?saddr=40.633,-89.399&daddr=40.7686,-87.9932","90CH011821","000","CDI HS/ Vermilion, Iroquois and Ford County, IL","10065 E Harvard Ave","Ste 700","Denver","CO","80231","5915","Denver County","(217) 474-8175","(217) 474-8175",40.7686,-87.9932
"Step by Step - Diamond","Head Start","125 S Berta Rd","","Diamond","IL","60416","7080","Grundy County",false,"(815) 634-3934","https://maps.google.com?saddr=40.633,-89.399&daddr=41.2866,-88.2656","05CH011765","000","YWCA Metropolitan Chicago","2055 W Army Trail Rd","Ste 140","Addison","IL","60101","1478","DuPage County","(815) 634-3934","(815) 634-3934",41.2866,-88.2656
"CEFS Head Start 0-5 Program-Taylorville","Head Start and Early Head Start","1104 W Spresser St","Ste 4","Taylorville","IL","62568","1783","Christian County",false,"(217) 287-2200","https://maps.google.com?saddr=40.633,-89.399&daddr=39.5526,-89.3086","05CH011248","000","C.E.F.S. ECONOMIC OPPORTUNITY CORPORATION","1805 S Banker St","","Effingham","IL","62401","2765","Effingham County","(217) 287-2200","(217)342-2193 - 139",39.5526,-89.3086
"Just For Kids","Head Start and Early Head Start","400 W State St","","Jacksonville","IL","62650","1902","Morgan County",false,"(217) 479-8272","https://maps.google.com?saddr=40.633,-89.399&daddr=39.7343,-90.2341","05CH011036","200","Springfield Urban League, Inc.","1108 E Cook St","100 North 11th Street","Springfield","IL","62703","1735","Sangamon County","(217) 479-8272","(217)789-0893 - 1210",39.7343,-90.2341
"PAW PAW","Head Start and Early Head Start","511 Chapman St","","Paw Paw","IL","61353","8932","Lee County",false,"(815) 246-7288","https://maps.google.com?saddr=40.633,-89.399&daddr=41.6914,-88.9778","05CH010856","000","Tri-County Opportunities Council, Inc.","405 Emmons Ave","","Rock Falls","IL","61071","1407","Whiteside County","(815) 246-7288","(815)625-7830 - 34",41.6914,-88.9778
"Colona Center 1200","Head Start","700 1st St","","Colona","IL","61241","9028","Henry County",false,"(309) 792-1232","https://maps.google.com?saddr=40.633,-89.399&daddr=41.4733,-90.3581","05CH011954","000","Project NOW, Inc., Community Action Agency","418 19th St","","Rock Island","IL","61201","8123","Rock Island County","(309) 792-1232","(309)792-4555",41.4733,-90.3581
"Herscher","Head Start","522 E Smith St","","Bonfield","IL","60913","6932","Kankakee County",false,"(815) 933-6995","https://maps.google.com?saddr=40.633,-89.399&daddr=41.1471,-88.0501","05CH011795","000","Kankakee School District 111 Head Start","240 Warren Ave","","Kankakee","IL","60901","4319","Kankakee County","(815) 933-6995","(815)802-4952",41.1471,-88.0501
"Skip-A-Long Moline","Early Head Start","4800 60th St","","Moline","IL","61265","8104","Rock Island County",false,"(1) 309-764","https://maps.google.com?saddr=40.633,-89.399&daddr=41.4651,-90.4553","05HP000451","200","SAL Family and Community Services","1 Montgomery Dr","Ste 30","Moline","IL","61265","1286","Rock Island County","(1) 309-764","(1) 309-764",41.4651,-90.4553
"It's A Child's World 1106","Head Start","644 Crosstown Ave","","Silvis","IL","61282","1649","Rock Island County",false,"(309) 792-8616","https://maps.google.com?saddr=40.633,-89.399&daddr=41.4986,-90.4212","05CH011954","000","Project NOW, Inc., Community Action Agency","418 19th St","","Rock Island","IL","61201","8123","Rock Island County","(309) 792-8616","(309)792-4555",41.4986,-90.4212
"Aledo 1301","Head Start","1109 SE 3rd St","","Aledo","IL","61231","9437","Mercer County",false,"(309) 582-3668","https://maps.google.com?saddr=40.633,-89.399&daddr=41.2005,-90.7369","05CH011954","000","Project NOW, Inc., Community Action Agency","418 19th St","","Rock Island","IL","61201","8123","Rock Island County","(309) 582-3668","(309)792-4555",41.2005,-90.7369
"North Macoupin County Head Start Center","Head Start","231 W Fortune St","North Macoupin Head Start","Virden","IL","62690","1228","Macoupin County",false,"(217) 965-4548","https://maps.google.com?saddr=40.633,-89.399&daddr=39.5067,-89.7762","05CH012028","000","Illinois Valley Economic Development Corporation","223 S Macoupin St","","Gillespie","IL","62033","1605","Macoupin County","(217) 965-4548","(217)839-4431",39.5067,-89.7762
"STERLING WALLACE","Head Start and Early Head Start","506 W 4th St","","Sterling","IL","61081","3412","Whiteside County",false,"(815) 669-5904","https://maps.google.com?saddr=40.633,-89.399&daddr=41.7892,-89.7031","05CH010856","000","Tri-County Opportunities Council, Inc.","405 Emmons Ave","","Rock Falls","IL","61071","1407","Whiteside County","(815) 669-5904","(815)625-7830 - 34",41.7892,-89.7031
"Florence Aldridge CDC 1101 & 12 Home-Based for Mercer, Henry, RI Co.","Head Start","499 27th St","","East Moline","IL","61244","1870","Rock Island County",false,"(309) 792-4555","https://maps.google.com?saddr=40.633,-89.399&daddr=41.5274,-90.4184","05CH011954","000","Project NOW, Inc., Community Action Agency","418 19th St","","Rock Island","IL","61201","8123","Rock Island County","(309) 792-4555","(309)792-4555",41.5274,-90.4184
"Play Palz 101","Early Head Start","190 Concordia Dr","","Chebanse","IL","60922","9761","Kankakee County",false,"(815) 697-3800","https://maps.google.com?saddr=40.633,-89.399&daddr=41.0064,-87.9107","05HP000400","200","Child Care Resource & Referral","187 S Schuyler Ave","Ste 100","Kankakee","IL","60901","3853","Kankakee County","(815) 697-3800","(815)741-1163 - 222",41.0064,-87.9107
"Skip-A-Long Milan","Early Head Start","1800 1st St W","","Milan","IL","61264","3347","Rock Island County",false,"(1) 309-787","https://maps.google.com?saddr=40.633,-89.399&daddr=41.4328,-90.5685","05HP000451","200","SAL Family and Community Services","1 Montgomery Dr","Ste 30","Moline","IL","61265","1286","Rock Island County","(1) 309-787","(1) 309-787",41.4328,-90.5685
"Springbrook 1103","Head Start","4251 - 11th Ave","","Moline","IL","61265","-1","Rock Island County",false,"(309) 762-6438","https://maps.google.com?saddr=40.633,-89.399&daddr=41.503,-90.4781","05CH011954","000","Project NOW, Inc., Community Action Agency","418 19th St","","Rock Island","IL","61201","8123","Rock Island County","(309) 762-6438","(309)792-4555",41.503,-90.4781
"Ridgewood","Head Start","9607 14th St W","","Rock Island","IL","61201","7844","Rock Island County",false,"(309) 793-5980","https://maps.google.com?saddr=40.633,-89.399&daddr=41.4241,-90.5856","05CH011614","000","Rock Island School District 41","3530 38th Ave","","Rock Island","IL","61201","6563","Rock Island County","(309) 793-5980","(309) 793-5980",41.4241,-90.5856
"P&J Tender Care 1108","Head Start","4544 3rd St","","Moline","IL","61265","6104","Rock Island County",false,"(309) 792-4555","https://maps.google.com?saddr=40.633,-89.399&daddr=41.4687,-90.5337","05CH011954","000","Project NOW, Inc., Community Action Agency","418 19th St","","Rock Island","IL","61201","8123","Rock Island County","(309) 792-4555","(309)792-4555",41.4687,-90.5337
"P & J Tendercare","Early Head Start","4544 3rd St","","Moline","IL","61265","6104","Rock Island County",false,"(309) 764-6908","https://maps.google.com?saddr=40.633,-89.399&daddr=41.4687,-90.5337","05HP000451","200","SAL Family and Community Services","1 Montgomery Dr","Ste 30","Moline","IL","61265","1286","Rock Island County","(309) 764-6908","(309) 764-6908",41.4687,-90.5337
"Jefferson","Head Start","1306 W. 4th Street","","Milan","IL","61264","-1","Rock Island County",false,"(309) 793-5985","https://maps.google.com?saddr=40.633,-89.399&daddr=41.4385,-90.5722","05CH011614","000","Rock Island School District 41","3530 38th Ave","","Rock Island","IL","61201","6563","Rock Island County","(309) 793-5985","(309) 793-5985",41.4385,-90.5722
"DIXON","Head Start and Early Head Start","501 S Lincoln Ave","","Dixon","IL","61021","3345","Lee County",false,"(815) 669-5760","https://maps.google.com?saddr=40.633,-89.399&daddr=41.8368,-89.4971","05CH010856","000","Tri-County Opportunities Council, Inc.","405 Emmons Ave","","Rock Falls","IL","61071","1407","Whiteside County","(815) 669-5760","(815)625-7830 - 34",41.8368,-89.4971
"Henderson County Head Start","Head Start","199 7th Street","","Oquawka","IL","61469","-1","Henderson County",false,"(309) 734-3151","https://maps.google.com?saddr=40.633,-89.399&daddr=40.9375,-90.9472","05CH011223","000","West Central Community Services, Inc.","321 E Euclid Ave","","Monmouth","IL","61462","1312","Warren County","(309) 734-3151","(309)734-3151 - 235",40.9375,-90.9472
"CEFS Head Start 0-5 Program-Sullivan","Head Start","10 Hawthorne Ln","Ste B","Sullivan","IL","61951","9407","Moultrie County",false,"(217) 994-2023","https://maps.google.com?saddr=40.633,-89.399&daddr=39.5847,-88.6059","05CH011248","000","C.E.F.S. ECONOMIC OPPORTUNITY CORPORATION","1805 S Banker St","","Effingham","IL","62401","2765","Effingham County","(217) 994-2023","(217)342-2193 - 139",39.5847,-88.6059
"Moline Kids Campus 1107","Head Start","1505 7th St","","Moline","IL","61265","2918","Rock Island County",false,"(309) 792-4555","https://maps.google.com?saddr=40.633,-89.399&daddr=41.4978,-90.5282","05CH011954","000","Project NOW, Inc., Community Action Agency","418 19th St","","Rock Island","IL","61201","8123","Rock Island County","(309) 792-4555","(309)792-4555",41.4978,-90.5282
"Home Based","Early Head Start","1 Montgomery Dr","","Moline","IL","61265","1286","Rock Island County",false,"(309) 781-5677","https://maps.google.com?saddr=40.633,-89.399&daddr=41.5124,-90.5115","05HP000451","200","SAL Family and Community Services","1 Montgomery Dr","Ste 30","Moline","IL","61265","1286","Rock Island County","(309) 781-5677","(309) 781-5677",41.5124,-90.5115
"Pregnant Moms","Early Head Start","1 Montgomery Dr","","Moline","IL","61265","1286","Rock Island County",false,"(309) 781-5677","https://maps.google.com?saddr=40.633,-89.399&daddr=41.5124,-90.5115","05HP000451","200","SAL Family and Community Services","1 Montgomery Dr","Ste 30","Moline","IL","61265","1286","Rock Island County","(309) 781-5677","(309) 781-5677",41.5124,-90.5115
"Esperanza Center","Head Start","335 5th Ave","","Moline","IL","61265","1149","Rock Island County",false,"(309) 792-4555","https://maps.google.com?saddr=40.633,-89.399&daddr=41.505,-90.5325","05CH011954","000","Project NOW, Inc., Community Action Agency","418 19th St","","Rock Island","IL","61201","8123","Rock Island County","(309) 792-4555","(309)792-4555",41.505,-90.5325
"Floreciente Center 1105","Head Start","350 3rd St","","Moline","IL","61265","1124","Rock Island County",false,"(309) 797-9819","https://maps.google.com?saddr=40.633,-89.399&daddr=41.506,-90.5333","05CH011954","000","Project NOW, Inc., Community Action Agency","418 19th St","","Rock Island","IL","61201","8123","Rock Island County","(309) 797-9819","(309)792-4555",41.506,-90.5333
"Mt. Sterling Home Based Site-First Baptist Church","Early Head Start","140 E Main St","","Mt Sterling","IL","62353","1326","Brown County",false,"(217) 773-3903","https://maps.google.com?saddr=40.633,-89.399&daddr=39.9846,-90.763","05CH010617","200","PACT FOR WEST CENTRAL ILLINOIS","2090 Highway 24"," ","Camp Point","IL","62320","2218","Adams County","(217) 773-3903","(217)773-3903",39.9846,-90.763
"Longfellow","Head Start","4198 7th Ave","","Rock Island","IL","61201","2250","Rock Island County",false,"(309) 793-5975","https://maps.google.com?saddr=40.633,-89.399&daddr=41.5047,-90.5429","05CH011614","000","Rock Island School District 41","3530 38th Ave","","Rock Island","IL","61201","6563","Rock Island County","(309) 793-5975","(309) 793-5975",41.5047,-90.5429
"Hanson","Head Start","4000 9th St","","Rock Island","IL","61201","6722","Rock Island County",false,"(309) 793-5930","https://maps.google.com?saddr=40.633,-89.399&daddr=41.4714,-90.5868","05CH011614","000","Rock Island School District 41","3530 38th Ave","","Rock Island","IL","61201","6563","Rock Island County","(309) 793-5930","(309) 793-5930",41.4714,-90.5868
"Horace Mann Early Learning Center","Head Start","3530 38th Ave","","Rock Island","IL","61201","6563","Rock Island County",false,"(309) 793-5928","https://maps.google.com?saddr=40.633,-89.399&daddr=41.4732,-90.5872","05CH011614","000","Rock Island School District 41","3530 38th Ave","","Rock Island","IL","61201","6563","Rock Island County","(309) 793-5928","(309) 793-5928",41.4732,-90.5872
"Rock Island Center for Math and Science","Head Start","2101 16th Ave","","Rock Island","IL","61201","3657","Rock Island County",false,"(309) 793-5955","https://maps.google.com?saddr=40.633,-89.399&daddr=41.4957,-90.5706","05CH011614","000","Rock Island School District 41","3530 38th Ave","","Rock Island","IL","61201","6563","Rock Island County","(309) 793-5955","(309) 793-5955",41.4957,-90.5706
"Rock Island Academy","Head Start","930 14th St","","Rock Island","IL","61201","2538","Rock Island County",false,"(309) 793-5944","https://maps.google.com?saddr=40.633,-89.399&daddr=41.5019,-90.5794","05CH011614","000","Rock Island School District 41","3530 38th Ave","","Rock Island","IL","61201","6563","Rock Island County","(309) 793-5944","(309) 793-5944",41.5019,-90.5794
"Lasting Impressions","Early Head Start","1237 W Station St","","Kankakee","IL","60901","3367","Kankakee County",false,"(815) 936-1242","https://maps.google.com?saddr=40.633,-89.399&daddr=41.119,-87.8824","05HP000400","200","Child Care Resource & Referral","187 S Schuyler Ave","Ste 100","Kankakee","IL","60901","3853","Kankakee County","(815) 936-1242","(815)741-1163 - 222",41.119,-87.8824
"Skip-A-Long Rock Island","Early Head Start","1609 4th St","","Rock Island","IL","61201","3206","Rock Island County",false,"(1) 309-788","https://maps.google.com?saddr=40.633,-89.399&daddr=41.4958,-90.5915","05HP000451","200","SAL Family and Community Services","1 Montgomery Dr","Ste 30","Moline","IL","61265","1286","Rock Island County","(1) 309-788","(1) 309-788",41.4958,-90.5915
"Play Palz 101","Early Head Start","201 N Wall St","","Kankakee","IL","60901","3424","Kankakee County",false,"(815) 939-0101","https://maps.google.com?saddr=40.633,-89.399&daddr=41.1225,-87.8821","05HP000400","200","Child Care Resource & Referral","187 S Schuyler Ave","Ste 100","Kankakee","IL","60901","3853","Kankakee County","(815) 939-0101","(815)741-1163 - 222",41.1225,-87.8821
"Marshall","Head Start","600 11th Ave","","Rock Island","IL","61201","2316","Rock Island County",false,"(309) 793-5924","https://maps.google.com?saddr=40.633,-89.399&daddr=41.5006,-90.5893","05CH011614","000","Rock Island School District 41","3530 38th Ave","","Rock Island","IL","61201","6563","Rock Island County","(309) 793-5924","(309) 793-5924",41.5006,-90.5893
"Lasting Impressions","Early Head Start","735 Main St NW","","Bourbonnais","IL","60914","2301","Kankakee County",false,"(815) 937-3553","https://maps.google.com?saddr=40.633,-89.399&daddr=41.1612,-87.8885","05HP000400","200","Child Care Resource & Referral","187 S Schuyler Ave","Ste 100","Kankakee","IL","60901","3853","Kankakee County","(815) 937-3553","(815)741-1163 - 222",41.1612,-87.8885
"DOUGLAS COUNTY","Head Start","200 E Issacher","","Camargo","IL","61919","-1","Douglas County",false,"(217) 832-3001","https://maps.google.com?saddr=40.633,-89.399&daddr=39.7977,-88.1642","05CH011449","000","Embarras River Basin Agency, Inc.","400 W Pleasant St","","Greenup","IL","62428","-1","Cumberland County","(217) 832-3001","(217)923-3113",39.7977,-88.1642
"River Valley Migrant & Seasonal Head Start","Migrant and Seasonal Head Start","202 N Schuyler Ave","Ste 107","Kankakee","IL","60901","3643","Kankakee County",false,"(815) 932-0569","https://maps.google.com?saddr=40.633,-89.399&daddr=41.1218,-87.8634","90CM009834","003","Rainbow Learning Enrichment","202 North Schuyler Ave. - Suite 107","","Kankakee","IL","60901","-1","Kankakee County","(815) 932-0569","(815)932-0569",41.1218,-87.8634
"Play Palz 101","Early Head Start","270 N Schuyler Ave","","Kankakee","IL","60901","3833","Kankakee County",false,"(815) 936-0101","https://maps.google.com?saddr=40.633,-89.399&daddr=41.1224,-87.8632","05HP000400","200","Child Care Resource & Referral","187 S Schuyler Ave","Ste 100","Kankakee","IL","60901","3853","Kankakee County","(815) 936-0101","(815)741-1163 - 222",41.1224,-87.8632
"Rockdale Head Start","Head Start and Early Head Start","1215 Houbolt Rd","Bldg A-1510","Joliet","IL","60431","8938","Will County",false,"(815) 280-2280","https://maps.google.com?saddr=40.633,-89.399&daddr=41.5005,-88.1808","05CH011316","000","Catholic Charities of the Diocese of Joliet, Inc.","203 North Ottawa Street, 3rd Floor","","Joliet","IL","60432","4006","Will County","(815) 280-2280","(815)723-3053",41.5005,-88.1808
"CEFS Head Start 0-5 Program-Pana","Head Start and Early Head Start","721 E Washington St","","Pana","IL","62557","1275","Christian County",false,"(217) 562-5758","https://maps.google.com?saddr=40.633,-89.399&daddr=39.3928,-89.0782","05CH011248","000","C.E.F.S. ECONOMIC OPPORTUNITY CORPORATION","1805 S Banker St","","Effingham","IL","62401","2765","Effingham County","(217) 562-5758","(217)342-2193 - 139",39.3928,-89.0782
"Bourbonnais","Head Start","325 N Convent St","","Bourbonnais","IL","60914","2015","Kankakee County",false,"(815) 802-4951","https://maps.google.com?saddr=40.633,-89.399&daddr=41.1614,-87.8778","05CH011795","000","Kankakee School District 111 Head Start","240 Warren Ave","","Kankakee","IL","60901","4319","Kankakee County","(815) 802-4951","(815)802-4952",41.1614,-87.8778
"Shabbona Elementary","Head Start","321 N Convent St","","Bourbonnais","IL","60914","2015","Kankakee County",false,"(815) 802-4954","https://maps.google.com?saddr=40.633,-89.399&daddr=41.1607,-87.8765","05CH011795","000","Kankakee School District 111 Head Start","240 Warren Ave","","Kankakee","IL","60901","4319","Kankakee County","(815) 802-4954","(815)802-4952",41.1607,-87.8765
"YWCA","Head Start","1086 E Court St","","Kankakee","IL","60901","4255","Kankakee County",false,"(815) 933-4516","https://maps.google.com?saddr=40.633,-89.399&daddr=41.1189,-87.8515","05CH011795","000","Kankakee School District 111 Head Start","240 Warren Ave","","Kankakee","IL","60901","4319","Kankakee County","(815) 933-4516","(815)802-4952",41.1189,-87.8515
"Proegler","Head Start","710 N Chicago Ave","","Kankakee","IL","60901","2129","Kankakee County",false,"(815) 802-4951","https://maps.google.com?saddr=40.633,-89.399&daddr=41.1285,-87.8563","05CH011795","000","Kankakee School District 111 Head Start","240 Warren Ave","","Kankakee","IL","60901","4319","Kankakee County","(815) 802-4951","(815)802-4952",41.1285,-87.8563
"Mary's Little Lamb Early Learning Center, LLC","Early Head Start","525 E Fair St","","Kankakee","IL","60901","2177","Kankakee County",false,"(815) 802-0553","https://maps.google.com?saddr=40.633,-89.399&daddr=41.131,-87.8573","05HP000400","200","Child Care Resource & Referral","187 S Schuyler Ave","Ste 100","Kankakee","IL","60901","3853","Kankakee County","(815) 802-0553","(815)741-1163 - 222",41.131,-87.8573
"Play Palz 101","Early Head Start","115 Mooney Dr","Ste 4","Bourbonnais","IL","60914","2162","Kankakee County",false,"(815) 929-0101","https://maps.google.com?saddr=40.633,-89.399&daddr=41.1585,-87.862","05HP000400","200","Child Care Resource & Referral","187 S Schuyler Ave","Ste 100","Kankakee","IL","60901","3853","Kankakee County","(815) 929-0101","(815)741-1163 - 222",41.1585,-87.862
"Alexandria Drive Early Childhood Center","Head Start and Early Head Start","1704 Alexandria Dr","","Joliet","IL","60436","1068","Will County",false,"(815) 730-8940","https://maps.google.com?saddr=40.633,-89.399&daddr=41.4893,-88.1457","05CH011316","200","Catholic Charities of the Diocese of Joliet, Inc.","203 North Ottawa Street, 3rd Floor","","Joliet","IL","60432","4006","Will County","(815) 730-8940","(815)723-3053",41.4893,-88.1457
"POLO EXTENDED DAY","Head Start","22027 Polo Rd","","Sterling","IL","61081","9726","Whiteside County",false,"(815) 625-8058","https://maps.google.com?saddr=40.633,-89.399&daddr=41.9021,-89.6487","05CH010856","000","Tri-County Opportunities Council, Inc.","405 Emmons Ave","","Rock Falls","IL","61071","1407","Whiteside County","(815) 625-8058","(815)625-7830 - 34",41.9021,-89.6487
"Watseka Head Start/Early Head Start","Head Start and Early Head Start","1801 N State Route 1","Bldg 1","Watseka","IL","60970","7562","Iroquois County",false,"(217) 474-6174","https://maps.google.com?saddr=40.633,-89.399&daddr=40.774,-87.6967","90CH011821","000","CDI HS/ Vermilion, Iroquois and Ford County, IL","10065 E Harvard Ave","Ste 700","Denver","CO","80231","5915","Denver County","(217) 474-6174","(217) 474-6174",40.774,-87.6967
"Del Valle Migrant Head Start","Migrant and Seasonal Head Start","6550 Ridge Rd","","Oswego","IL","60543","8635","Kendall County",false,"(815) 436-1092","https://maps.google.com?saddr=40.633,-89.399&daddr=41.6188,-88.268","90CM009834","002","Del Valle Migrant Head Start, Inc.","6550 Ridge Rd"," ","Oswego","IL","60543","8635","Kendall County","(815) 436-1092","(815)436-1092",41.6188,-88.268
"CEFS Head Start 0-5 Program-Shelbyville","Head Start","711 W South 7th St","","Shelbyville","IL","62565","2013","Shelby County",false,"(217) 774-5918","https://maps.google.com?saddr=40.633,-89.399&daddr=39.4008,-88.8009","05CH011248","000","C.E.F.S. ECONOMIC OPPORTUNITY CORPORATION","1805 S Banker St","","Effingham","IL","62401","2765","Effingham County","(217) 774-5918","(217)342-2193 - 139",39.4008,-88.8009
"Broadway Center","Head Start","110 Willow Ave","","Joliet","IL","60436","1558","Will County",false,"(815) 722-5253","https://maps.google.com?saddr=40.633,-89.399&daddr=41.5211,-88.0998","05CH011316","000","Catholic Charities of the Diocese of Joliet, Inc.","203 North Ottawa Street, 3rd Floor","","Joliet","IL","60432","4006","Will County","(815) 722-5253","(815)723-3053",41.5211,-88.0998
"Manteno","Head Start","555 W Cook St","","Manteno","IL","60950","3720","Kankakee County",false,"(815) 928-7200","https://maps.google.com?saddr=40.633,-89.399&daddr=41.2454,-87.8436","05CH011795","000","Kankakee School District 111 Head Start","240 Warren Ave","","Kankakee","IL","60901","4319","Kankakee County","(815) 928-7200","(815)802-4952",41.2454,-87.8436
"Hoopeston Head Start","Head Start","502 E Main St","","Hoopeston","IL","60942","1522","Vermilion County",false,"(217) 474-0459","https://maps.google.com?saddr=40.633,-89.399&daddr=40.4676,-87.665","90CH011821","000","CDI HS/ Vermilion, Iroquois and Ford County, IL","10065 E Harvard Ave","Ste 700","Denver","CO","80231","5915","Denver County","(217) 474-0459","(217) 474-0459",40.4676,-87.665
"Felman Early Childhood Center","Head Start and Early Head Start","200 S Desplaines St","","Joliet","IL","60436","2210","Will County",false,"(815) 727-5730","https://maps.google.com?saddr=40.633,-89.399&daddr=41.5201,-88.0856","05CH011316","200","Catholic Charities of the Diocese of Joliet, Inc.","203 North Ottawa Street, 3rd Floor","","Joliet","IL","60432","4006","Will County","(815) 727-5730","(815)723-3053",41.5201,-88.0856
"ROCHELLE","Head Start and Early Head Start","14206 E Flagg Rd","","Rochelle","IL","61068","9100","Ogle County",false,"(815) 562-3088","https://maps.google.com?saddr=40.633,-89.399&daddr=41.9412,-89.0683","05CH010856","000","Tri-County Opportunities Council, Inc.","405 Emmons Ave","","Rock Falls","IL","61071","1407","Whiteside County","(815) 562-3088","(815)625-7830 - 34",41.9412,-89.0683
"Carthage Center","Early Head Start","712 Center St","","Carthage","IL","62321","1118","Hancock County",false,"(217) 357-6764","https://maps.google.com?saddr=40.633,-89.399&daddr=40.4187,-91.1314","05CH010617","200","PACT FOR WEST CENTRAL ILLINOIS","2090 Highway 24"," ","Camp Point","IL","62320","2218","Adams County","(217) 357-6764","(217)773-3903",40.4187,-91.1314
"TEMPORARY Ottawa Administrative Building","Head Start","203 N Ottawa St","","Joliet","IL","60432","4006","Will County",false,"(1) 815-723","https://maps.google.com?saddr=40.633,-89.399&daddr=41.528,-88.0835","05CH011316","000","Catholic Charities of the Diocese of Joliet, Inc.","203 North Ottawa Street, 3rd Floor","","Joliet","IL","60432","4006","Will County","(1) 815-723","(815)723-3053",41.528,-88.0835
"Kinder Care Constitution","Head Start","80 S Constitution Dr","","Aurora","IL","60506","7335","Kane County",false,"(630) 906-6582","https://maps.google.com?saddr=40.633,-89.399&daddr=41.7621,-88.368","05CH011765","000","YWCA Metropolitan Chicago","2055 W Army Trail Rd","Ste 140","Addison","IL","60101","1478","DuPage County","(630) 906-6582","(630) 906-6582",41.7621,-88.368
"OREGON EXTENDED DAY","Head Start and Early Head Start","1302 Pines Rd","Ste 1","Oregon","IL","61061","9619","Ogle County",false,"(815) 732-6893","https://maps.google.com?saddr=40.633,-89.399&daddr=42.0047,-89.3458","05CH010856","000","Tri-County Opportunities Council, Inc.","405 Emmons Ave","","Rock Falls","IL","61071","1407","Whiteside County","(815) 732-6893","(815)625-7830 - 34",42.0047,-89.3458
"Jugando Se Aprende","Early Head Start","1042 Talma St","","Aurora","IL","60505","5606","Kane County",false,"(630) 978-6514","https://maps.google.com?saddr=40.633,-89.399&daddr=41.736,-88.3112","05HP000507","200","YWCA Metropolitan Chicago","2055 W Army Trail Rd","Ste 140","Addison","IL","60101","1478","DuPage County","(630) 978-6514","(630) 978-6514",41.736,-88.3112
"Boone|DeKalb|Grundy Home-Based","Early Head Start","155 N 3rd St","Ste 504","Dekalb","IL","60115","3366","DeKalb County",false,"(815) 748-0190","https://maps.google.com?saddr=40.633,-89.399&daddr=41.9308,-88.7512","05CH011731","200","Children's Home & Aid Society of Illinois","125 S Wacker Dr","Fl 14","Chicago","IL","60606","4429","Cook County","(815) 748-0190","(815) 748-0190",41.9308,-88.7512
"Aurora East","Head Start","107 Jackson St","","Aurora","IL","60505","4364","Kane County",false,"(630) 375-9800","https://maps.google.com?saddr=40.633,-89.399&daddr=41.7514,-88.3077","05CH011694","000","Two Rivers Head Start","1661 Landmark Rd"," ","Aurora","IL","60506","1146","Kane County","(630) 375-9800","(630)264-1444",41.7514,-88.3077
"MATTOON","Head Start","2000 Richmond Ave","","Mattoon","IL","61938","2846","Coles County",false,"(217) 929-9004","https://maps.google.com?saddr=40.633,-89.399&daddr=39.4852,-88.3792","05CH011449","000","Embarras River Basin Agency, Inc.","400 W Pleasant St","","Greenup","IL","62428","-1","Cumberland County","(217) 929-9004","(217)923-3113",39.4852,-88.3792
"Hometown Child Care - Lincoln","Head Start","60 S Lincoln Ave","","Aurora","IL","60505","3490","Kane County",false,"(630) 692-9300","https://maps.google.com?saddr=40.633,-89.399&daddr=41.7543,-88.3117","05CH011765","000","YWCA Metropolitan Chicago","2055 W Army Trail Rd","Ste 140","Addison","IL","60101","1478","DuPage County","(630) 692-9300","(630) 692-9300",41.7543,-88.3117
"Hometown Childcare Center Lincoln","Early Head Start","60 S Lincoln Ave","Ste 1","Aurora","IL","60505","3492","Kane County",false,"(630) 692-9300","https://maps.google.com?saddr=40.633,-89.399&daddr=41.7543,-88.3117","05HP000507","200","YWCA Metropolitan Chicago","2055 W Army Trail Rd","Ste 140","Addison","IL","60101","1478","DuPage County","(630) 692-9300","(630) 692-9300",41.7543,-88.3117
"Hometown Child Care - Town Center","Head Start","1679 Town Center St","","Aurora","IL","60504","4521","DuPage County",false,"(630) 898-4663","https://maps.google.com?saddr=40.633,-89.399&daddr=41.74,-88.278","05CH011765","000","YWCA Metropolitan Chicago","2055 W Army Trail Rd","Ste 140","Addison","IL","60101","1478","DuPage County","(630) 898-4663","(630) 898-4663",41.74,-88.278
"Hometown Childcare Center Town Center","Early Head Start","1679 Town Center St","","Aurora","IL","60504","4521","DuPage County",false,"(630) 898-4663","https://maps.google.com?saddr=40.633,-89.399&daddr=41.74,-88.278","05HP000507","200","YWCA Metropolitan Chicago","2055 W Army Trail Rd","Ste 140","Addison","IL","60101","1478","DuPage County","(630) 898-4663","(630) 898-4663",41.74,-88.278
"Illiana Migrant Head Start","Migrant and Seasonal Head Start","150 S Randolph St","","Sheldon","IL","60966","8213","Iroquois County",false,"(815) 429-3174","https://maps.google.com?saddr=40.633,-89.399&daddr=40.7695,-87.5718","90CM009834","003","Rainbow Learning Enrichment","202 North Schuyler Ave. - Suite 107","","Kankakee","IL","60901","-1","Kankakee County","(815) 429-3174","(815)932-0569",40.7695,-87.5718
"Carlinville Head Start Center","Head Start","610 N Charles St","","Carlinville","IL","62626","1339","Macoupin County",false,"(217) 854-6736","https://maps.google.com?saddr=40.633,-89.399&daddr=39.286,-89.8776","05CH012028","000","Illinois Valley Economic Development Corporation","223 S Macoupin St","","Gillespie","IL","62033","1605","Macoupin County","(217) 854-6736","(217)839-4431",39.286,-89.8776
"Aurora West","Head Start","1455 Sullivan Rd","","Aurora","IL","60506","1058","Kane County",false,"(630) 907-9525","https://maps.google.com?saddr=40.633,-89.399&daddr=41.7902,-88.352","05CH011694","000","Two Rivers Head Start","1661 Landmark Rd"," ","Aurora","IL","60506","1146","Kane County","(630) 907-9525","(630)264-1444",41.7902,-88.352
"Greene County Head Start Center","Head Start","302 Higbee St","","White Hall","IL","62092","1327","Greene County",false,"(217) 374-2390","https://maps.google.com?saddr=40.633,-89.399&daddr=39.4426,-90.3998","05CH012028","000","Illinois Valley Economic Development Corporation","223 S Macoupin St","","Gillespie","IL","62033","1605","Macoupin County","(217) 374-2390","(217)839-4431",39.4426,-90.3998
"Sycamore","Head Start","2425 Bethany Rd","Ste D","Sycamore","IL","60178","3165","DeKalb County",false,"(815) 748-3713","https://maps.google.com?saddr=40.633,-89.399&daddr=41.9669,-88.7211","05CH011694","000","Two Rivers Head Start","1661 Landmark Rd"," ","Aurora","IL","60506","1146","Kane County","(815) 748-3713","(630)264-1444",41.9669,-88.7211
"Camp Point Center","Head Start and Early Head Start","2090 Highway 24","","Camp Point","IL","62320","2218","Adams County",false,"(217) 593-6777","https://maps.google.com?saddr=40.633,-89.399&daddr=40.0369,-91.1186","05CH010617","000","PACT FOR WEST CENTRAL ILLINOIS","2090 Highway 24"," ","Camp Point","IL","62320","2218","Adams County","(217) 593-6777","(217)773-3903",40.0369,-91.1186
"Voorhees Admin Office/Head Start/Early Head Start","Head Start and Early Head Start","1001 E Voorhees St","","Danville","IL","61832","2131","Vermilion County",false,"(217) 820-0320","https://maps.google.com?saddr=40.633,-89.399&daddr=40.1467,-87.6105","90CH011821","000","CDI HS/ Vermilion, Iroquois and Ford County, IL","10065 E Harvard Ave","Ste 700","Denver","CO","80231","5915","Denver County","(217) 820-0320","(217) 820-0320",40.1467,-87.6105
"Family & Community Development (FCD) Head Start/Early Head Start","Head Start and Early Head Start","501 N Kimball St","","Danville","IL","61832","4818","Vermilion County",false,"(217) 820-8376","https://maps.google.com?saddr=40.633,-89.399&daddr=40.1325,-87.6151","90CH011821","000","CDI HS/ Vermilion, Iroquois and Ford County, IL","10065 E Harvard Ave","Ste 700","Denver","CO","80231","5915","Denver County","(217) 820-8376","(217) 820-8376",40.1325,-87.6151
"NEOGA","Head Start","1364 County Road 100 E","","Neoga","IL","62447","2105","Cumberland County",false,"(217) 895-2361","https://maps.google.com?saddr=40.633,-89.399&daddr=39.3686,-88.4533","05CH011449","000","Embarras River Basin Agency, Inc.","400 W Pleasant St","","Greenup","IL","62428","-1","Cumberland County","(217) 895-2361","(217)923-3113",39.3686,-88.4533
"CHARLESTON II","Head Start","707 Windsor Rd","Ste A","Charleston","IL","61920","7474","Coles County",false,"(217) 500-3121","https://maps.google.com?saddr=40.633,-89.399&daddr=39.5017,-88.1931","05CH011449","000","Embarras River Basin Agency, Inc.","400 W Pleasant St","","Greenup","IL","62428","-1","Cumberland County","(217) 500-3121","(217)923-3113",39.5017,-88.1931
"CHARLESTON","Head Start","697 Windsor Rd","","Charleston","IL","61920","7486","Coles County",false,"(217) 500-3124","https://maps.google.com?saddr=40.633,-89.399&daddr=39.5015,-88.1932","05CH011449","000","Embarras River Basin Agency, Inc.","400 W Pleasant St","","Greenup","IL","62428","-1","Cumberland County","(217) 500-3124","(217)923-3113",39.5015,-88.1932
"Good Shepherd Center","Head Start and Early Head Start","151 E Briarcliff Rd","","Bolingbrook","IL","60440","3070","Will County",false,"(630) 783-2735","https://maps.google.com?saddr=40.633,-89.399&daddr=41.6976,-88.0651","05CH011316","200","Catholic Charities of the Diocese of Joliet, Inc.","203 North Ottawa Street, 3rd Floor","","Joliet","IL","60432","4006","Will County","(630) 783-2735","(815)723-3053",41.6976,-88.0651
"Trinity Head Start","Head Start","311 E Moses Ave","","Westville","IL","61883","1301","Vermilion County",false,"(217) 474-5208","https://maps.google.com?saddr=40.633,-89.399&daddr=40.0483,-87.636","90CH011821","000","CDI HS/ Vermilion, Iroquois and Ford County, IL","10065 E Harvard Ave","Ste 700","Denver","CO","80231","5915","Denver County","(217) 474-5208","(217) 474-5208",40.0483,-87.636
"CEFS Head Start 0-5 Program-Litchfield","Head Start and Early Head Start","202 W Water St","Ste B","Litchfield","IL","62056","2158","Montgomery County",false,"(217) 994-3879","https://maps.google.com?saddr=40.633,-89.399&daddr=39.1677,-89.6569","05CH011248","000","C.E.F.S. ECONOMIC OPPORTUNITY CORPORATION","1805 S Banker St","","Effingham","IL","62401","2765","Effingham County","(217) 994-3879","(217)342-2193 - 139",39.1677,-89.6569
"Johnson School","Head Start","2S700 Continental Dr","","Warrenville","IL","60555","1456","DuPage County",false,"(630) 393-1787","https://maps.google.com?saddr=40.633,-89.399&daddr=41.8287,-88.2078","05CH010475","000","Metropolitan Family Services DuPage Head Start","222 E Willow Ave"," ","Wheaton","IL","60187","5426","DuPage County","(630) 393-1787","(630)784-4801",41.8287,-88.2078
"Pike Home Based: St. Paul Lutheran Church","Early Head Start","1234 W Washington St","","Pittsfield","IL","62363","1655","Pike County",false,"(217) 773-3903","https://maps.google.com?saddr=40.633,-89.399&daddr=39.6058,-90.8253","05CH010617","200","PACT FOR WEST CENTRAL ILLINOIS","2090 Highway 24"," ","Camp Point","IL","62320","2218","Adams County","(217) 773-3903","(217)773-3903",39.6058,-90.8253
"Pittsfield Center","Head Start and Early Head Start","1310 W Washington St","","Pittsfield","IL","62363","9535","Pike County",false,"(217) 285-2234","https://maps.google.com?saddr=40.633,-89.399&daddr=39.6059,-90.8367","05CH010617","000","PACT FOR WEST CENTRAL ILLINOIS","2090 Highway 24"," ","Camp Point","IL","62320","2218","Adams County","(217) 285-2234","(217)773-3903",39.6059,-90.8367
"Family Development Center","Early Head Start","1 University Pkwy","","University Park","IL","60484","3165","Will County",false,"(708) 235-7300","https://maps.google.com?saddr=40.633,-89.399&daddr=41.4465,-87.7197","05CH011351","200","Governors State University","1 University Pkwy","","University Park","IL","60484","3165","Will County","(708) 235-7300","(708)235-7314",41.4465,-87.7197
"Educare of West DuPage","Head Start","851 Pearl Rd","","West Chicago","IL","60185","3716","DuPage County",false,"(630) 957-5500","https://maps.google.com?saddr=40.633,-89.399&daddr=41.8703,-88.2122","05CH010474","000","Educare of West DuPage","851 Pearl Rd","","West Chicago","IL","60185","3716","DuPage County","(630) 957-5500","(630)957-5500",41.8703,-88.2122
"Educare West DuPage","Early Head Start","851 Pearl Rd","","West Chicago","IL","60185","3716","DuPage County",false,"(630) 957-5500","https://maps.google.com?saddr=40.633,-89.399&daddr=41.8706,-88.2117","05HP000147","200","Educare of West DuPage","851 Pearl Rd","","West Chicago","IL","60185","3716","DuPage County","(630) 957-5500","(630)957-5500",41.8706,-88.2117
"First Step Child Care Center, Inc.","Head Start and Early Head Start","22025 Governors Hwy","","Richton Park","IL","60471","1247","Cook County",false,"(708) 747-3000","https://maps.google.com?saddr=40.633,-89.399&daddr=41.4884,-87.7122","05CH011953","000","Start Early","33 W Monroe St","Ste 1200","Chicago","IL","60603","5316","Cook County","(708) 747-3000","(312)922-3863",41.4884,-87.7122
"Educare West DuPage at Glen Arbor","Early Head Start","204 Church St","","West Chicago","IL","60185","2706","DuPage County",false,"(630) 601-2320","https://maps.google.com?saddr=40.633,-89.399&daddr=41.8819,-88.2074","05HP000147","200","Educare of West DuPage","851 Pearl Rd","","West Chicago","IL","60185","3716","DuPage County","(630) 601-2320","(630)957-5500",41.8819,-88.2074
"Anne M. Jeans Elementary School","Head Start","16W 632 91st Street","","Willowbrook","IL","60527","-1","DuPage County",false,"(630) 325-4836","https://maps.google.com?saddr=40.633,-89.399&daddr=41.7229,-87.9483","05CH010475","000","Metropolitan Family Services DuPage Head Start","222 E Willow Ave"," ","Wheaton","IL","60187","5426","DuPage County","(630) 325-4836","(630)784-4801",41.7229,-87.9483
"Savanna West Carroll Head Start","Head Start","2215 Wacker Rd","","Savanna","IL","61074","2823","Carroll County",false,"(815) 273-0447","https://maps.google.com?saddr=40.633,-89.399&daddr=42.0807,-90.122","05CH010856","000","Tri-County Opportunities Council, Inc.","405 Emmons Ave","","Rock Falls","IL","61071","1407","Whiteside County","(815) 273-0447","(815)625-7830 - 34",42.0807,-90.122
"Jefferson Early Childhood Center","Head Start","130 N Hazelton Ave","","Wheaton","IL","60187","4550","DuPage County",false,"(630) 682-2474","https://maps.google.com?saddr=40.633,-89.399&daddr=41.8648,-88.1365","05CH010475","000","Metropolitan Family Services DuPage Head Start","222 E Willow Ave"," ","Wheaton","IL","60187","5426","DuPage County","(630) 682-2474","(630)784-4801",41.8648,-88.1365
"CHRISMAN","Head Start","111 N Pennsylvania St","","Chrisman","IL","61924","1238","Edgar County",false,"(217) 269-2651","https://maps.google.com?saddr=40.633,-89.399&daddr=39.8036,-87.6736","05CH011449","000","Embarras River Basin Agency, Inc.","400 W Pleasant St","","Greenup","IL","62428","-1","Cumberland County","(217) 269-2651","(217)923-3113",39.8036,-87.6736
"Early Head Start Home-Based","Early Head Start","222 E Willow Ave","","Wheaton","IL","60187","5426","DuPage County",false,"(630) 784-4801","https://maps.google.com?saddr=40.633,-89.399&daddr=41.863,-88.1039","05CH010475","200","Metropolitan Family Services DuPage Head Start","222 E Willow Ave"," ","Wheaton","IL","60187","5426","DuPage County","(630) 784-4801","(630)784-4801",41.863,-88.1039
"Mother Goose","Head Start and Early Head Start","4112 183rd St","","Country Club Hills","IL","60478","5309","Cook County",false,"(708) 647-9140","https://maps.google.com?saddr=40.633,-89.399&daddr=41.5582,-87.7154","05CH011615","200","Easter Seals Metropolitan Chicago, Inc.","1939 W 13th St Ste 300","","Chicago","IL","60608","1237","Cook County","(708) 647-9140","(708)434-2522",41.5582,-87.7154
"South Macoupin County Head Start Center","Head Start","314 E Central Ave","","Benld","IL","62009","1202","Macoupin County",false,"(217) 835-2239","https://maps.google.com?saddr=40.633,-89.399&daddr=39.093,-89.8033","05CH012028","000","Illinois Valley Economic Development Corporation","223 S Macoupin St","","Gillespie","IL","62033","1605","Macoupin County","(217) 835-2239","(217)839-4431",39.093,-89.8033
"Longfellow Elemntary School","Head Start","311 E Seminary Ave","","Wheaton","IL","60187","5354","DuPage County",false,"(630) 682-2080","https://maps.google.com?saddr=40.633,-89.399&daddr=41.8676,-88.1028","05CH010475","000","Metropolitan Family Services DuPage Head Start","222 E Willow Ave"," ","Wheaton","IL","60187","5426","DuPage County","(630) 682-2080","(630)784-4801",41.8676,-88.1028
"Westfield Elementary","Head Start","2S125 Mayfield Ln","","Glen Ellyn","IL","60137","7017","DuPage County",false,"(630) 784-4800","https://maps.google.com?saddr=40.633,-89.399&daddr=41.8428,-88.0445","05CH010475","000","Metropolitan Family Services DuPage Head Start","222 E Willow Ave"," ","Wheaton","IL","60187","5426","DuPage County","(630) 784-4800","(630)784-4801",41.8428,-88.0445
"St. Andrew's  Head Start","Head Start","250 N Gary Ave","","Carol Stream","IL","60188","1834","DuPage County",false,"(630) 456-4398","https://maps.google.com?saddr=40.633,-89.399&daddr=41.9086,-88.122","05CH010475","000","Metropolitan Family Services DuPage Head Start","222 E Willow Ave"," ","Wheaton","IL","60187","5426","DuPage County","(630) 456-4398","(630)784-4801",41.9086,-88.122
"IAFC-Chicago Heights Early Learning Center","Head Start and Early Head Start","202 S Halsted St","","Chicago Heights","IL","60411","8200","Cook County",false,"(773) 769-8865","https://maps.google.com?saddr=40.633,-89.399&daddr=41.5256,-87.6386","05CH011751","000","Illinois Action for Children","4753 N Broadway St Ste 1200","","Chicago","IL","60640","4982","Cook County","(773) 769-8865","(708)365-1500",41.5256,-87.6386
"Outreach","Head Start","345 S President St","","Carol Stream","IL","60188","3226","DuPage County",false,"(630) 260-7600","https://maps.google.com?saddr=40.633,-89.399&daddr=41.8961,-88.092","05CH010475","000","Metropolitan Family Services DuPage Head Start","222 E Willow Ave"," ","Wheaton","IL","60187","5426","DuPage County","(630) 260-7600","(630)784-4801",41.8961,-88.092
"Justice Child Development Center","Early Head Start","8527 S 88th Ave","# 31","Justice","IL","60458","1723","Cook County",false,"(708) 563-1234","https://maps.google.com?saddr=40.633,-89.399&daddr=41.7358,-87.838","05HP000432","200","Proviso Leyden Council for Community Action, Inc.","411 Madison St"," ","Maywood","IL","60153","2136","Cook County","(708) 563-1234","(708)865-0608 - 300",41.7358,-87.838
"Easterseals Early Learning Center - Hickory HIlls","Head Start and Early Head Start","8020 W 87th St","","Hickory Hills","IL","60457","1189","Cook County",false,"","https://maps.google.com?saddr=40.633,-89.399&daddr=41.7336,-87.8196","05CH011615","000","Easter Seals Metropolitan Chicago, Inc.","1939 W 13th St Ste 300","","Chicago","IL","60608","1237","Cook County","","(708)434-2522",41.7336,-87.8196
"IAFC - Ford Heights Early Learning Center","Head Start and Early Head Start","1055 Berkeley Ave","","Ford Heights","IL","60411","2238","Cook County",false,"(773) 769-8865","https://maps.google.com?saddr=40.633,-89.399&daddr=41.512,-87.5909","05CH011751","000","Illinois Action for Children","4753 N Broadway St Ste 1200","","Chicago","IL","60640","4982","Cook County","(773) 769-8865","(708)365-1500",41.512,-87.5909
"YMCA Elgin","Head Start","50 N McLean Blvd","","Elgin","IL","60123","5139","Kane County",false,"(630) 503-6571","https://maps.google.com?saddr=40.633,-89.399&daddr=42.0361,-88.3126","05CH011765","000","YWCA Metropolitan Chicago","2055 W Army Trail Rd","Ste 140","Addison","IL","60101","1478","DuPage County","(630) 503-6571","(630) 503-6571",42.0361,-88.3126
"Shelby Scholars","Head Start and Early Head Start","3587 W 137th St","","Robbins","IL","60472","1607","Cook County",false,"(708) 371-8431","https://maps.google.com?saddr=40.633,-89.399&daddr=41.6437,-87.7086","05CH011615","200","Easter Seals Metropolitan Chicago, Inc.","1939 W 13th St Ste 300","","Chicago","IL","60608","1237","Cook County","(708) 371-8431","(708)434-2522",41.6437,-87.7086
"Elgin West","Head Start","69 N Aldine Ave","","Elgin","IL","60123","5265","Kane County",false,"(847) 888-0271","https://maps.google.com?saddr=40.633,-89.399&daddr=42.0372,-88.3065","05CH011694","000","Two Rivers Head Start","1661 Landmark Rd"," ","Aurora","IL","60506","1146","Kane County","(847) 888-0271","(630)264-1444",42.0372,-88.3065
"One Hope United Elgin Child and Family Resource Cener","Head Start","210 National St","","Elgin","IL","60120","6725","Kane County",false,"(847) 697-7100","https://maps.google.com?saddr=40.633,-89.399&daddr=42.0313,-88.2757","05CH011765","000","YWCA Metropolitan Chicago","2055 W Army Trail Rd","Ste 140","Addison","IL","60101","1478","DuPage County","(847) 697-7100","(847) 697-7100",42.0313,-88.2757
"Beyer Elementary School","Head Start","333 15th Ave","","Rockford","IL","61104","5101","Winnebago County",false,"(815) 966-3390","https://maps.google.com?saddr=40.633,-89.399&daddr=42.25,-89.0935","05CH010616","000","City of Rockford, Human Services Dept.","425 E State St"," ","Rockford","IL","61104","1014","Winnebago County","(815) 966-3390","(779)348-7169",42.25,-89.0935
"Safari Life Child Care & Learning Center","Head Start and Early Head Start","1935 Glenwood Dyer Rd","","Lynwood","IL","60411","8651","Cook County",false,"(708) 833-7040","https://maps.google.com?saddr=40.633,-89.399&daddr=41.5278,-87.5698","05CH011615","200","Easter Seals Metropolitan Chicago, Inc.","1939 W 13th St Ste 300","","Chicago","IL","60608","1237","Cook County","(708) 833-7040","(708)434-2522",41.5278,-87.5698
"Kiddy Kulture Child Care & Learning Center","Head Start and Early Head Start","396 E 159th St","","Harvey","IL","60426","5240","Cook County",false,"(708) 331-4300","https://maps.google.com?saddr=40.633,-89.399&daddr=41.6006,-87.633","05CH011615","200","Easter Seals Metropolitan Chicago, Inc.","1939 W 13th St Ste 300","","Chicago","IL","60608","1237","Cook County","(708) 331-4300","(708)434-2522",41.6006,-87.633
"CEFS Head Start 0-5 Program-Effingham (EHS & HS)","Head Start and Early Head Start","100 E Market Ave","","Effingham","IL","62401","3472","Effingham County",false,"(217) 994-4300","https://maps.google.com?saddr=40.633,-89.399&daddr=39.1234,-88.5417","05CH011248","200","C.E.F.S. ECONOMIC OPPORTUNITY CORPORATION","1805 S Banker St","","Effingham","IL","62401","2765","Effingham County","(217) 994-4300","(217)342-2193 - 139",39.1234,-88.5417
"CEFS Head Start 0-5 Program-Altamont","Head Start","6 N 4th St","","Altamont","IL","62411","1418","Effingham County",false,"(217) 500-7501","https://maps.google.com?saddr=40.633,-89.399&daddr=39.0599,-88.7511","05CH011248","000","C.E.F.S. ECONOMIC OPPORTUNITY CORPORATION","1805 S Banker St","","Effingham","IL","62401","2765","Effingham County","(217) 500-7501","(217)342-2193 - 139",39.0599,-88.7511
"Early Head Start Administration Office","Early Head Start","425 E State St","","Rockford","IL","61104","1014","Winnebago County",false,"(779) 348-7169","https://maps.google.com?saddr=40.633,-89.399&daddr=42.2677,-89.0882","05CH010616","200","City of Rockford, Human Services Dept.","425 E State St"," ","Rockford","IL","61104","1014","Winnebago County","(779) 348-7169","(779)348-7169",42.2677,-89.0882
"PARIS 1 & 2","Head Start","507 Connelly St","","Paris","IL","61944","1544","Edgar County",false,"(217) 500-3110","https://maps.google.com?saddr=40.633,-89.399&daddr=39.6177,-87.6939","05CH011449","000","Embarras River Basin Agency, Inc.","400 W Pleasant St","","Greenup","IL","62428","-1","Cumberland County","(217) 500-3110","(217)923-3113",39.6177,-87.6939
"Trinity Day Care","Early Head Start","215 N 1st St","","Rockford","IL","61107","3958","Winnebago County",false,"(815) 986-5437","https://maps.google.com?saddr=40.633,-89.399&daddr=42.2692,-89.0868","05CH010616","200","City of Rockford, Human Services Dept.","425 E State St"," ","Rockford","IL","61104","1014","Winnebago County","(815) 986-5437","(779)348-7169",42.2692,-89.0868
"IAFC-Harvey - South Holland Early Learning Center","Head Start and Early Head Start","16515 S Park Ave","","South Holland","IL","60473","2257","Cook County",false,"(773) 769-8865","https://maps.google.com?saddr=40.633,-89.399&daddr=41.5951,-87.6072","05CH011751","000","Illinois Action for Children","4753 N Broadway St Ste 1200","","Chicago","IL","60640","4982","Cook County","(773) 769-8865","(708)365-1500",41.5951,-87.6072
"PACE Center","Early Head Start","902 Acorn St","","Rockford","IL","61101","6520","Winnebago County",false,"(779) 348-7169","https://maps.google.com?saddr=40.633,-89.399&daddr=42.279,-89.1002","05CH010616","200","City of Rockford, Human Services Dept.","425 E State St"," ","Rockford","IL","61104","1014","Winnebago County","(779) 348-7169","(779)348-7169",42.279,-89.1002
"Addison Children's Center","Early Head Start","121 E Fullerton Ave","","Addison","IL","60101","4603","DuPage County",false,"(630) 784-4950","https://maps.google.com?saddr=40.633,-89.399&daddr=41.9196,-87.9862","05CH010475","200","Metropolitan Family Services DuPage Head Start","222 E Willow Ave"," ","Wheaton","IL","60187","5426","DuPage County","(630) 784-4950","(630)784-4801",41.9196,-87.9862
"King Community Campus","Head Start","511 S Liberty Ave","","Freeport","IL","61032","5600","Stephenson County",false,"(815) 235-3740","https://maps.google.com?saddr=40.633,-89.399&daddr=42.2937,-89.6135","05CH010568","000","Northwestern Illinois Community Action Agency HS","511 S Liberty Ave","Rm 146","Freeport","IL","61032","5600","Stephenson County","(815) 235-3740","(815)235-3740",42.2937,-89.6135
"Pleasant Street","Head Start","537 W Pleasant St","","Freeport","IL","61032","5061","Stephenson County",false,"(815) 235-3740","https://maps.google.com?saddr=40.633,-89.399&daddr=42.2935,-89.6255","05CH010568","000","Northwestern Illinois Community Action Agency HS","511 S Liberty Ave","Rm 146","Freeport","IL","61032","5600","Stephenson County","(815) 235-3740","(815)235-3740",42.2935,-89.6255
"Little Prince Daycare","Early Head Start","233 N Mill Rd","","Addison","IL","60101","2409","DuPage County",false,"(630) 903-6609","https://maps.google.com?saddr=40.633,-89.399&daddr=41.9319,-88.0028","05HP000507","200","YWCA Metropolitan Chicago","2055 W Army Trail Rd","Ste 140","Addison","IL","60101","1478","DuPage County","(630) 903-6609","(630) 903-6609",41.9319,-88.0028
"Army Trail DuPage Head Start","Head Start","346 W Army Trail Blvd","","Addison","IL","60101","3402","DuPage County",false,"(630) 784-4849","https://maps.google.com?saddr=40.633,-89.399&daddr=41.9324,-87.9975","05CH010475","000","Metropolitan Family Services DuPage Head Start","222 E Willow Ave"," ","Wheaton","IL","60187","5426","DuPage County","(630) 784-4849","(630)784-4801",41.9324,-87.9975
"CEFS Head Start 0-5 Program-Vandalia","Head Start and Early Head Start","1902 Progress West Dr","","Vandalia","IL","62471","3244","Fayette County",false,"(217) 994-3701","https://maps.google.com?saddr=40.633,-89.399&daddr=38.9735,-89.1172","05CH011248","000","C.E.F.S. ECONOMIC OPPORTUNITY CORPORATION","1805 S Banker St","","Effingham","IL","62401","2765","Effingham County","(217) 994-3701","(217)342-2193 - 139",38.9735,-89.1172
"Cuddle Care Infant Toddler and Child Care","Head Start and Early Head Start","159 E 144th St","","Riverdale","IL","60827","2862","Cook County",false,"(708) 849-8875","https://maps.google.com?saddr=40.633,-89.399&daddr=41.6338,-87.6178","05CH011615","200","Easter Seals Metropolitan Chicago, Inc.","1939 W 13th St Ste 300","","Chicago","IL","60608","1237","Cook County","(708) 849-8875","(708)434-2522",41.6338,-87.6178
"Academy for Children II","Head Start and Early Head Start","19131 Burnham Ave","","Lansing","IL","60438","3820","Cook County",false,"(219) 427-8274","https://maps.google.com?saddr=40.633,-89.399&daddr=41.5473,-87.5388","05CH011615","000","Easter Seals Metropolitan Chicago, Inc.","1939 W 13th St Ste 300","","Chicago","IL","60608","1237","Cook County","(219) 427-8274","(708)434-2522",41.5473,-87.5388
"Quincy Home-based Site-First Christian Church","Early Head Start","1415 Maine St","","Quincy","IL","62301","4260","Adams County",false,"(217) 214-7228","https://maps.google.com?saddr=40.633,-89.399&daddr=39.9323,-91.3929","05CH010617","200","PACT FOR WEST CENTRAL ILLINOIS","2090 Highway 24"," ","Camp Point","IL","62320","2218","Adams County","(217) 214-7228","(217)773-3903",39.9323,-91.3929
"Kids Tech Discovery Center","Head Start and Early Head Start","14224 S Indiana Ave","","Riverdale","IL","60827","2507","Cook County",false,"(708) 201-7300","https://maps.google.com?saddr=40.633,-89.399&daddr=41.6363,-87.6176","05CH011615","200","Easter Seals Metropolitan Chicago, Inc.","1939 W 13th St Ste 300","","Chicago","IL","60608","1237","Cook County","(708) 201-7300","(708)434-2522",41.6363,-87.6176
"Ada S McKinley - Children's Center (Halsted)","Early Head Start","12803 S Halsted St","","Chicago","IL","60628","7430","Cook County",false,"(773) 264-5175","https://maps.google.com?saddr=40.633,-89.399&daddr=41.6612,-87.641","05HP000439","201","Ada S. McKinley Community Services","1359 W Washington Blvd","","Chicago","IL","60607","1905","Cook County","(773) 264-5175","(312)554-0600",41.6612,-87.641
"Ada S. McKinley Community Services-Children's Center (Halsted)","Head Start and Early Head Start","12803 S Halsted St","","Chicago","IL","60628","7430","Cook County",false,"(773) 960-4776","https://maps.google.com?saddr=40.633,-89.399&daddr=41.6612,-87.641","05CH012050","008","Ada S. McKinley Community Services","1359 W Washington Blvd"," ","Chicago","IL","60607","1905","Cook County","(773) 960-4776","(773)468-1918",41.6612,-87.641
"Easterseals EHS Home Based Program","Head Start and Early Head Start","4415 Harrison St","Ste 510","Hillside","IL","60162","1907","Cook County",false,"(708) 330-4541","https://maps.google.com?saddr=40.633,-89.399&daddr=41.8692,-87.8927","05CH011615","200","Easter Seals Metropolitan Chicago, Inc.","1939 W 13th St Ste 300","","Chicago","IL","60608","1237","Cook County","(708) 330-4541","(708)434-2522",41.8692,-87.8927
"CUMBERLAND ~ Greenup & Home-Based","Head Start","215 N Jay Hayden Dr","","Greenup","IL","62428","1154","Cumberland County",false,"(217) 500-3080","https://maps.google.com?saddr=40.633,-89.399&daddr=39.2497,-88.1608","05CH011449","000","Embarras River Basin Agency, Inc.","400 W Pleasant St","","Greenup","IL","62428","-1","Cumberland County","(217) 500-3080","(217)923-3113",39.2497,-88.1608
"Academy for Children","Head Start and Early Head Start","2350 Bernice Rd","","Lansing","IL","60438","1008","Cook County",false,"(708) 418-9999","https://maps.google.com?saddr=40.633,-89.399&daddr=41.5796,-87.5604","05CH011615","200","Easter Seals Metropolitan Chicago, Inc.","1939 W 13th St Ste 300","","Chicago","IL","60608","1237","Cook County","(708) 418-9999","(708)434-2522",41.5796,-87.5604
"Nurturing Developmental and Learning Academy II","Head Start and Early Head Start","835 E Sibley Blvd","","South Holland","IL","60473","1165","Cook County",false,"(708) 333-1355","https://maps.google.com?saddr=40.633,-89.399&daddr=41.6222,-87.5961","05CH011615","200","Easter Seals Metropolitan Chicago, Inc.","1939 W 13th St Ste 300","","Chicago","IL","60608","1237","Cook County","(708) 333-1355","(708)434-2522",41.6222,-87.5961
"IAFC - Dolton Early Learning Center","Head Start and Early Head Start","729 Engle St","","Dolton","IL","60419","1720","Cook County",false,"(708) 365-1546","https://maps.google.com?saddr=40.633,-89.399&daddr=41.6301,-87.6029","05CH011751","000","Illinois Action for Children","4753 N Broadway St Ste 1200","","Chicago","IL","60640","4982","Cook County","(708) 365-1546","(708)365-1500",41.6301,-87.6029
"Summerdale Early Education Center","Head Start","3320 Glenwood Ave","","Rockford","IL","61101","3468","Winnebago County",false,"(815) 966-3280","https://maps.google.com?saddr=40.633,-89.399&daddr=42.3002,-89.1056","05CH010616","000","City of Rockford, Human Services Dept.","425 E State St"," ","Rockford","IL","61104","1014","Winnebago County","(815) 966-3280","(779)348-7169",42.3002,-89.1056
"Southwest Macoupin County Head Start Center","Head Start","201 E City Limits Rd","Brighton North Primary School","Brighton","IL","62012","2344","Macoupin County",false,"(618) 372-4401","https://maps.google.com?saddr=40.633,-89.399&daddr=39.0502,-90.1398","05CH012028","000","Illinois Valley Economic Development Corporation","223 S Macoupin St","","Gillespie","IL","62033","1605","Macoupin County","(618) 372-4401","(217)839-4431",39.0502,-90.1398
"House of Kids","Early Head Start","3800 W 84th St","","Chicago","IL","60652","3214","Cook County",false,"(708) 705-0384","https://maps.google.com?saddr=40.633,-89.399&daddr=41.7408,-87.717","05HP000440","200","Carole Robertson Center for Learning","1111 S Western Ave","Ste B","Chicago","IL","60612","4146","Cook County","(708) 705-0384","(708) 705-0384",41.7408,-87.717
"House of Kidds Child Care Center","Head Start","3800 W 84th St","","Chicago","IL","60652","3214","Cook County",false,"","https://maps.google.com?saddr=40.633,-89.399&daddr=41.7408,-87.717","05CH012058","000","Carole Robertson Center for Learning","1111 S Western Ave","Ste B","Chicago","IL","60612","4146","Cook County","","(312)243-7300",41.7408,-87.717
"El Valor Corporation-Power Daycare","Head Start and Early Head Start","725 W 123rd St","","Chicago","IL","60628","6448","Cook County",false,"(773) 568-5794","https://maps.google.com?saddr=40.633,-89.399&daddr=41.6705,-87.6403","05CH012050","015","El Valor Corporation","1850 W 21st St"," ","Chicago","IL","60608","2715","Cook County","(773) 568-5794","(312)997-2021",41.6705,-87.6403
"Star Kids Math & Science Academy","Head Start and Early Head Start","11053 S Vincennes Ave","","Chicago","IL","60643","3557","Cook County",false,"(773) 779-5900","https://maps.google.com?saddr=40.633,-89.399&daddr=41.6924,-87.6629","05CH012056","000","Henry Booth House","2907 S Wabash Ave","Ste 205","Chicago","IL","60616","3271","Cook County","(773) 779-5900","(312)949-3600 - 3602",41.6924,-87.6629
"YMCA Children's Learning Center","Head Start","2918 Glenwood Ave","","Rockford","IL","61101","3545","Winnebago County",false,"(815) 977-4576","https://maps.google.com?saddr=40.633,-89.399&daddr=42.3007,-89.1023","05CH010616","000","City of Rockford, Human Services Dept.","425 E State St"," ","Rockford","IL","61104","1014","Winnebago County","(815) 977-4576","(779)348-7169",42.3007,-89.1023
"El Valor Corporation-Kidz Colony Day Care","Head Start","6287 S Archer Ave","","Chicago","IL","60638","2547","Cook County",false,"(773) 767-8522","https://maps.google.com?saddr=40.633,-89.399&daddr=41.7931,-87.7779","05CH012050","015","El Valor Corporation","1850 W 21st St"," ","Chicago","IL","60608","2715","Cook County","(773) 767-8522","(312)997-2021",41.7931,-87.7779
"Early Childhood and Family Center","Head Start","401 S 8th St","","Quincy","IL","62301","4149","Adams County",false,"(217) 228-7121","https://maps.google.com?saddr=40.633,-89.399&daddr=39.9276,-91.4025","05CH011747","000","Quincy Early Childhood","1416 Maine St","","Quincy","IL","62301","4261","Adams County","(217) 228-7121","(217)228-7121",39.9276,-91.4025
"Amita Health EHS Home Based Program","Early Head Start","9855 W Roosevelt Rd","","Westchester","IL","60154","2758","Cook County",false,"(708) 547-7341","https://maps.google.com?saddr=40.633,-89.399&daddr=41.8634,-87.8699","05CH011615","200","Easter Seals Metropolitan Chicago, Inc.","1939 W 13th St Ste 300","","Chicago","IL","60608","1237","Cook County","(708) 547-7341","(708)434-2522",41.8634,-87.8699
"A Step Up Career Academy","Head Start","2745 Bernice Rd","","Lansing","IL","60438","1011","Cook County",false,"(708) 474-2511","https://maps.google.com?saddr=40.633,-89.399&daddr=41.5789,-87.5501","05CH011751","000","Illinois Action for Children","4753 N Broadway St Ste 1200","","Chicago","IL","60640","4982","Cook County","(708) 474-2511","(708)365-1500",41.5789,-87.5501
"Gads Hill - Peachtree Educational Daycare 2","Early Head Start","1431 W 111th St","","Chicago","IL","60643","3623","Cook County",false,"(773) 776-9043","https://maps.google.com?saddr=40.633,-89.399&daddr=41.692,-87.6582","05HP000439","208","Gads Hill Center","1919 W Cullerton St","","Chicago","IL","60608","2618","Cook County","(773) 776-9043","(312)226-0963",41.692,-87.6582
"Peachtree Educational Daycare","Head Start","1431 W 111th St","","Chicago","IL","60643","3623","Cook County",false,"(773) 776-9043","https://maps.google.com?saddr=40.633,-89.399&daddr=41.692,-87.6582","05CH012065","002","Gads Hill Center","1919 W Cullerton St"," ","Chicago","IL","60608","2618","Cook County","(773) 776-9043","(312)226-0963",41.692,-87.6582
"Ada S. McKinley Community Services-Bunnyland Day Care","Head Start","545 W 119th St","","Chicago","IL","60628","5947","Cook County",false,"(773) 671-7856","https://maps.google.com?saddr=40.633,-89.399&daddr=41.6776,-87.6365","05CH012050","008","Ada S. McKinley Community Services","1359 W Washington Blvd"," ","Chicago","IL","60607","1905","Cook County","(773) 671-7856","(773)468-1918",41.6776,-87.6365
"St. Pius","Head Start and Early Head Start","6801 W 43rd St","","Stickney","IL","60402","-1","Cook County",false,"(708) 222-4519","https://maps.google.com?saddr=40.633,-89.399&daddr=41.8139,-87.7933","05CH011626","001","The Children's Center of Cicero-Berwyn, Inc.","5341 W Cermak Rd"," ","Cicero","IL","60804","2817","Cook County","(708) 222-4519","(708) 222-4519",41.8139,-87.7933
"M & E Daycare LLC","Head Start","3728 W 79th St","","Chicago","IL","60652","1832","Cook County",false,"(773) 585-7979","https://maps.google.com?saddr=40.633,-89.399&daddr=41.7499,-87.7152","05CH012065","002","Gads Hill Center","1919 W Cullerton St"," ","Chicago","IL","60608","2618","Cook County","(773) 585-7979","(312)226-0963",41.7499,-87.7152
"Jump for Joy Child Care Academy South","Early Head Start","3833 S Harlem Ave","","Berwyn","IL","60402","3925","Cook County",false,"(708) 484-9640","https://maps.google.com?saddr=40.633,-89.399&daddr=41.8218,-87.8022","05HP000432","200","Proviso Leyden Council for Community Action, Inc.","411 Madison St"," ","Maywood","IL","60153","2136","Cook County","(708) 484-9640","(708)865-0608 - 300",41.8218,-87.8022
"Kiddie Academy - Carptentersville","Head Start","112 Tay River Dr","","Carpentersville","IL","60110","2800","Kane County",false,"(847) 844-8600","https://maps.google.com?saddr=40.633,-89.399&daddr=42.1089,-88.2995","05CH011765","000","YWCA Metropolitan Chicago","2055 W Army Trail Rd","Ste 140","Addison","IL","60101","1478","DuPage County","(847) 844-8600","(847) 844-8600",42.1089,-88.2995
"Chicago Youth Centers-Pathways to Learning Child Care Center","Head Start and Early Head Start","3450 W 79th St","","Chicago","IL","60652","1442","Cook County",false,"(773) 436-9244","https://maps.google.com?saddr=40.633,-89.399&daddr=41.7498,-87.7092","05CH012050","001","Chicago Youth Centers","218 S Wabash Ave","Ste 600","Chicago","IL","60604","2314","Cook County","(773) 436-9244","(312)913-1700 - 425",41.7498,-87.7092
"Chicago Youth Centers - Pathways to Learning Child Care Center","Early Head Start","3450 W 79th St","# 56","Chicago","IL","60652","1442","Cook County",false,"(773) 436-9249","https://maps.google.com?saddr=40.633,-89.399&daddr=41.75,-87.7092","05HP000439","205","Chicago Youth Centers","218 S Wabash Suite 600","","Chicago","IL","60604","-1","Cook County","(773) 436-9249","(312)913-1700 - 425",41.75,-87.7092
"Chicago Youth Centers - Pathways to Learning Infant Center","Early Head Start","3438 W 79th St","","Chicago","IL","60652","1442","Cook County",false,"(773) 439-9244","https://maps.google.com?saddr=40.633,-89.399&daddr=41.7499,-87.7088","05HP000439","205","Chicago Youth Centers","218 S Wabash Suite 600","","Chicago","IL","60604","-1","Cook County","(773) 439-9244","(312)913-1700 - 425",41.7499,-87.7088
"Little Achievers Child Care Development Center","Head Start and Early Head Start","539 Bellwood Ave","","Bellwood","IL","60104","1868","Cook County",false,"(708) 544-6302","https://maps.google.com?saddr=40.633,-89.399&daddr=41.8821,-87.878","05CH011615","200","Easter Seals Metropolitan Chicago, Inc.","1939 W 13th St Ste 300","","Chicago","IL","60608","1237","Cook County","(708) 544-6302","(708)434-2522",41.8821,-87.878
"TBD","Head Start and Early Head Start","106 W 119th St","","Chicago","IL","60628","6122","Cook County",false,"","https://maps.google.com?saddr=40.633,-89.399&daddr=41.6782,-87.6255","05CH012058","000","Carole Robertson Center for Learning","1111 S Western Ave","Ste B","Chicago","IL","60612","4146","Cook County","","(312)243-7300",41.6782,-87.6255
"Ada S McKinley - J & L Family Learning Day Care","Early Head Start","11640 S Wentworth Ave","","Chicago","IL","60628","5412","Cook County",false,"(773) 821-1808","https://maps.google.com?saddr=40.633,-89.399&daddr=41.6823,-87.6277","05HP000150","201","Ada S. McKinley Community Services","11400 S Edbrooke Ave","","Chicago","IL","60628","4930","Cook County","(773) 821-1808","(773)468-1918",41.6823,-87.6277
"Grandma Jones Daycare III","Early Head Start","1810 Sibley Blvd","Calumet City","Calumet City","IL","60409","2216","Cook County",false,"(708) 730-9467","https://maps.google.com?saddr=40.633,-89.399&daddr=41.623,-87.5693","05CH011615","200","Easter Seals Metropolitan Chicago, Inc.","1939 W 13th St Ste 300","","Chicago","IL","60608","1237","Cook County","(708) 730-9467","(708)434-2522",41.623,-87.5693
"Ada S McKinley - J & L Family Learning Day Care","Early Head Start","11640 S Wentworth Ave","","Chicago","IL","60628","5412","Cook County",false,"(773) 821-1808","https://maps.google.com?saddr=40.633,-89.399&daddr=41.6823,-87.6277","05HP000439","201","Ada S. McKinley Community Services","1359 W Washington Blvd","","Chicago","IL","60607","1905","Cook County","(773) 821-1808","(312)554-0600",41.6823,-87.6277
"Ada S. McKinley Community Services-J & L Family Learning Day","Head Start","11640 S Wentworth Ave","","Chicago","IL","60628","5412","Cook County",false,"(773) 821-1808","https://maps.google.com?saddr=40.633,-89.399&daddr=41.6823,-87.6277","05CH012050","008","Ada S. McKinley Community Services","1359 W Washington Blvd"," ","Chicago","IL","60607","1905","Cook County","(773) 821-1808","(773)468-1918",41.6823,-87.6277
"TBD 2","Early Head Start","7 E 119th St","","Chicago","IL","60628","6117","Cook County",false,"","https://maps.google.com?saddr=40.633,-89.399&daddr=41.6778,-87.6222","05CH012058","200","Carole Robertson Center for Learning","1111 S Western Ave","Ste B","Chicago","IL","60612","4146","Cook County","","(312)243-7300",41.6778,-87.6222
"Amita Child Developmental Center","Head Start","330 Eastern Ave","","Bellwood","IL","60104","1531","Cook County",false,"(708) 547-7341","https://maps.google.com?saddr=40.633,-89.399&daddr=41.8861,-87.8739","05CH011615","000","Easter Seals Metropolitan Chicago, Inc.","1939 W 13th St Ste 300","","Chicago","IL","60608","1237","Cook County","(708) 547-7341","(708)434-2522",41.8861,-87.8739
"Presence Developmental Center","Early Head Start","330 Eastern Ave","","Bellwood","IL","60104","1531","Cook County",false,"(708) 547-7341","https://maps.google.com?saddr=40.633,-89.399&daddr=41.8861,-87.8739","05HP000432","200","Proviso Leyden Council for Community Action, Inc.","411 Madison St"," ","Maywood","IL","60153","2136","Cook County","(708) 547-7341","(708)865-0608 - 300",41.8861,-87.8739
"Centers for New Horizons - Altgeld Ingleside","Early Head Start","13107 S Ingleside Ave","","Chicago","IL","60827","-1","Cook County",false,"(773) 468-3055","https://maps.google.com?saddr=40.633,-89.399&daddr=41.6573,-87.5991","05HP000439","203","Centers For New Horizons, Inc.","4150 South King Drive","","Chicago","IL","60653","2616","Cook County","(773) 468-3055","(773)373-5700",41.6573,-87.5991
"Chicago Youth Centers-Dorothy Gautreaux","Head Start and Early Head Start","975 E 132nd St","","Chicago","IL","60827","1463","Cook County",false,"(773) 291-1000","https://maps.google.com?saddr=40.633,-89.399&daddr=41.6556,-87.5974","05CH012050","001","Chicago Youth Centers","218 S Wabash Ave","Ste 600","Chicago","IL","60604","2314","Cook County","(773) 291-1000","(312)913-1700 - 425",41.6556,-87.5974
"Centers for New Horizons - Altgeld Ingleside","Head Start and Early Head Start","13107 S Ingleside Ave","","Chicago","IL","60827","-1","Cook County",false,"(773) 468-3055","https://maps.google.com?saddr=40.633,-89.399&daddr=41.6573,-87.5991","05CH012050","213","Centers for New Horizons, Inc.","4150 S King Dr"," ","Chicago","IL","60653","2616","Cook County","(773) 468-3055","(773)373-5700",41.6573,-87.5991
"Ada S. McKinley Community Services-Little Genius 2","Early Head Start","1000 W 103rd St","","Chicago","IL","60643","2313","Cook County",false,"(773) 629-8003","https://maps.google.com?saddr=40.633,-89.399&daddr=41.7071,-87.6479","05CH012050","208","Ada S. McKinley Community Services","11400 S Edbrooke Ave"," ","Chicago","IL","60628","4930","Cook County","(773) 629-8003","(773)468-1918",41.7071,-87.6479
"Serendipity Child Care Inc","Early Head Start","1300 W 99th St","","Chicago","IL","60643","1343","Cook County",false,"(773) 677-7378","https://maps.google.com?saddr=40.633,-89.399&daddr=41.7143,-87.6554","05HP000439","225","Serendipity Child Care Inc.","1300 W 99th St"," ","Chicago","IL","60643","1343","Cook County","(773) 677-7378","(773) 677-7378",41.7143,-87.6554
"Concordia","Head Start","3144 Home Ave","","Berwyn","IL","60402","2910","Cook County",false,"(708) 222-4517","https://maps.google.com?saddr=40.633,-89.399&daddr=41.8344,-87.7983","05CH011626","001","The Children's Center of Cicero-Berwyn, Inc.","5341 W Cermak Rd"," ","Cicero","IL","60804","2817","Cook County","(708) 222-4517","(708) 222-4517",41.8344,-87.7983
"Calumet City Kids Academy","Head Start","670 River Oaks Dr","","Calumet City","IL","60409","5712","Cook County",false,"(708) 862-4442","https://maps.google.com?saddr=40.633,-89.399&daddr=41.6007,-87.5422","05CH011751","000","Illinois Action for Children","4753 N Broadway St Ste 1200","","Chicago","IL","60640","4982","Cook County","(708) 862-4442","(708)365-1500",41.6007,-87.5422
"Chicago Commons- Little Bear Day Care","Early Head Start","6411 S Pulaski Rd","","Chicago","IL","60629","5100","Cook County",false,"","https://maps.google.com?saddr=40.633,-89.399&daddr=41.7763,-87.7223","05HP000439","204","Chicago Commons Association","515 E 50th St","","Chicago","IL","60615","2401","Cook County","","(773)638-5600",41.7763,-87.7223
"Brain Box Literacy Academy","Head Start and Early Head Start","9308 S Ashland Ave","","Chicago","IL","60620","5119","Cook County",false,"(773) 980-1234","https://maps.google.com?saddr=40.633,-89.399&daddr=41.7245,-87.6631","05CH012055","000","Easter Seals Metropolitan Chicago, Inc.","1939 W 13th St","Ste 300","Chicago","IL","60608","1237","Cook County","(773) 980-1234","(708)330-4490",41.7245,-87.6631
"Chicago Commons - Learn Together Grow Together","Early Head Start","1126 W 99th St","","Chicago","IL","60643","2260","Cook County",false,"(773) 568-4769","https://maps.google.com?saddr=40.633,-89.399&daddr=41.7143,-87.6515","05HP000439","204","Chicago Commons Association","515 E 50th St","","Chicago","IL","60615","2401","Cook County","(773) 568-4769","(773)638-5600",41.7143,-87.6515
"Learn Together Grow Together # 1","Head Start and Early Head Start","1126 W 99th St","","Chicago","IL","60643","2260","Cook County",false,"(773) 568-4769","https://maps.google.com?saddr=40.633,-89.399&daddr=41.7143,-87.6515","05CH012065","003","Learn Together Grow Together","1126 W 99th St"," ","Chicago","IL","60643","2260","Cook County","(773) 568-4769","(773) 568-4769",41.7143,-87.6515
"Ada S McKinley - Little Genius","Early Head Start","11439 S Michigan Ave","","Chicago","IL","60628","4901","Cook County",false,"(773) 629-8091","https://maps.google.com?saddr=40.633,-89.399&daddr=41.6859,-87.6206","05HP000150","201","Ada S. McKinley Community Services","11400 S Edbrooke Ave","","Chicago","IL","60628","4930","Cook County","(773) 629-8091","(773)468-1918",41.6859,-87.6206
"Chicago Youth Centers - Graham Crackers II","Early Head Start","1 E 113th St","","Chicago","IL","60628","4915","Cook County",false,"(773) 568-7611","https://maps.google.com?saddr=40.633,-89.399&daddr=41.6889,-87.6228","05HP000439","205","Chicago Youth Centers","218 S Wabash Suite 600","","Chicago","IL","60604","-1","Cook County","(773) 568-7611","(312)913-1700 - 425",41.6889,-87.6228
"Chicago Youth Centers-Graham Crackers II","Head Start","1 E 113th St","","Chicago","IL","60628","4915","Cook County",false,"(773) 568-7611","https://maps.google.com?saddr=40.633,-89.399&daddr=41.6889,-87.6228","05CH012050","001","Chicago Youth Centers","218 S Wabash Ave","Ste 600","Chicago","IL","60604","2314","Cook County","(773) 568-7611","(312)913-1700 - 425",41.6889,-87.6228
"Gads Hill - Kiddie College Learning Center","Early Head Start","8046 S Western Ave","","Chicago","IL","60620","5936","Cook County",false,"(773) 912-6599","https://maps.google.com?saddr=40.633,-89.399&daddr=41.7469,-87.6832","05HP000439","208","Gads Hill Center","1919 W Cullerton St","","Chicago","IL","60608","2618","Cook County","(773) 912-6599","(312)226-0963",41.7469,-87.6832
"Kidde College","Head Start","8046 S Western Ave","","Chicago","IL","60620","5936","Cook County",false,"(773) 912-6599","https://maps.google.com?saddr=40.633,-89.399&daddr=41.7469,-87.6832","05CH012065","002","Gads Hill Center","1919 W Cullerton St"," ","Chicago","IL","60608","2618","Cook County","(773) 912-6599","(312)226-0963",41.7469,-87.6832
"Ada S McKinley - J & L Family Learning Day Care II","Early Head Start","116 E 113th St","","Chicago","IL","60628","4918","Cook County",false,"(773) 980-1080","https://maps.google.com?saddr=40.633,-89.399&daddr=41.6891,-87.6202","05HP000150","201","Ada S. McKinley Community Services","11400 S Edbrooke Ave","","Chicago","IL","60628","4930","Cook County","(773) 980-1080","(773)468-1918",41.6891,-87.6202
